[
    {
        "nom": "Centre de Vaccination de Charleville-Mézières (parc des expositions)",
        "lon": 4.71338,
        "lat": 49.7567,
        "addr": "Rue de la Vieille Meuse 08000 Charleville-Mézières"
    },
    {
        "nom": "CHU DE CAEN NORMANDIE",
        "lon": -0.357382,
        "lat": 49.2045,
        "addr": "avenue Côte de Nacre 14000 Caen"
    },
    {
        "nom": "Centre de vaccination - Centre des congrès de Vierzon",
        "lon": 2.06034,
        "lat": 47.2246,
        "addr": "16 Rue de la Société Française 18100 Vierzon"
    },
    {
        "nom": "CH MEMORIAL FRANCE-ETATS-UNIS SAINT-LO",
        "lon": -1.09151,
        "lat": 49.1138,
        "addr": "4 Rue Saint-Thomas - salle salvador allende 50000 Saint-Lô"
    },
    {
        "nom": "CH Bastia",
        "lon": 9.43569,
        "lat": 42.6809,
        "addr": "604 Chemin de Falconaja 20600 Bastia"
    },
    {
        "nom": "Centre de vaccination - Espace Aurore - CH Saint-Amand",
        "lon": 2.52948,
        "lat": 46.7251,
        "addr": "240 Rue des Orpailleurs 18200 Saint-Amand-Montrond"
    },
    {
        "nom": "Centre de vaccination du CH Troyes( ancien LIDL)",
        "lon": 4.09398,
        "lat": 48.3047,
        "addr": "Av du Mal de Lattre de Tassigny 10000 Troyes"
    },
    {
        "nom": "CH Calvi Balagne",
        "lon": 8.75981,
        "lat": 42.5495,
        "addr": "chemin guazzole 20260 Calvi"
    },
    {
        "nom": "Centre de vaccination - réservé professionnels de santé et assimilés\" - CH Chartres",
        "lon": 1.50613,
        "lat": 48.4232,
        "addr": "4 Rue Claude Bernard 28630 Le Coudray"
    },
    {
        "nom": "CH Châteauroux / Pôle de soins de suite et réadaptation ",
        "lon": 1.70818,
        "lat": 46.7943,
        "addr": "16 Rue Claude Nicolas Ledoux 36000 Châteauroux"
    },
    {
        "nom": "CH Chaumont",
        "lon": 5.1386,
        "lat": 48.1218,
        "addr": "2 Rue Jeanne d'Arc 52000 Chaumont"
    },
    {
        "nom": "CH de la Tour Blanche - Issoudun",
        "lon": 1.99844,
        "lat": 46.9604,
        "addr": "Avenue Jean Bonnefont 36100 Issoudun"
    },
    {
        "nom": "CHRU Tours / Centre de vaccination - réservé aux professionnels en exercice",
        "lon": 0.682825,
        "lat": 47.389,
        "addr": "5 Rue Jehan Fouquet 37000 Tours"
    },
    {
        "nom": "SAINT APOLINAIRE Maison des associations Esplanade François Manière",
        "lon": 5.08103,
        "lat": 47.3325,
        "addr": "129 Rue Saint Jean 21850 Saint-Apollinaire"
    },
    {
        "nom": "CH Saint-Dizier",
        "lon": 4.96715,
        "lat": 48.657,
        "addr": "1 Rue Albert Schweitzer 52100 Saint-Dizier"
    },
    {
        "nom": "CH Sartène",
        "lon": 8.92676,
        "lat": 41.6004,
        "addr": "355 Cacciabello 20100 Sartène"
    },
    {
        "nom": "CHU Besançon",
        "lon": 5.9627,
        "lat": 47.2257,
        "addr": "3 Boulevard Alexandre Fleming 25000 Besançon"
    },
    {
        "nom": "Polyclinique de Franche-Comté",
        "lon": 5.97953,
        "lat": 47.2154,
        "addr": "4 Rue Auguste Rodin 25000 Besançon"
    },
    {
        "nom": "RENNES CHU Site Pontchaillou",
        "lon": -1.69278,
        "lat": 48.1192,
        "addr": "2 Rue Henri le Guilloux 35000 Rennes"
    },
    {
        "nom": "Centre de vaccination CPTS - Salle Monmarteau",
        "lon": 2.39742,
        "lat": 47.0748,
        "addr": "6 Rue Charles Cochet 18000 Bourges"
    },
    {
        "nom": "CH ANGOULEME",
        "lon": 0.120763,
        "lat": 45.636,
        "addr": "Rd Point de Girac 16470 Saint-Michel"
    },
    {
        "nom": "CH Bourbonne-les-Bains",
        "lon": 5.74542,
        "lat": 47.9543,
        "addr": "1 Rue Terrail Lemone 52400 Bourbonne-les-Bains"
    },
    {
        "nom": "Centre hospitalier de Pithiviers",
        "lon": 2.24792,
        "lat": 48.1707,
        "addr": "10 Boulevard Beauvallet 45300 Pithiviers"
    },
    {
        "nom": "CH Ajaccio (Centre de vaccination les Salines)",
        "lon": 8.75096,
        "lat": 41.938,
        "addr": "Avenue Marechal Juin 20090 Ajaccio"
    },
    {
        "nom": "Centre de vaccination du CH COGNAC",
        "lon": -0.304585,
        "lat": 45.6894,
        "addr": "2 Rue du bleu nâcré 16100 Châteaubernard"
    },
    {
        "nom": "Ch Langres",
        "lon": 5.33653,
        "lat": 47.8668,
        "addr": "10 Rue de la Charité 52200 Langres"
    },
    {
        "nom": "Centre de vaccination - CHU de NANTES- Réservé professionnels libéraux",
        "lon": -1.55152,
        "lat": 47.2127,
        "addr": "7 Allée de la Maison Rouge 44000 Nantes"
    },
    {
        "nom": "CH CONFOLENS",
        "lon": 0.67039,
        "lat": 46.005,
        "addr": "Rue du Docteur Marcel Perrot 16500 Confolens"
    },
    {
        "nom": "CH RUFFEC",
        "lon": 0.195442,
        "lat": 46.0288,
        "addr": "15 Rue de l'Hôpital 16700 Ruffec"
    },
    {
        "nom": "Plateau de consultations du service de maladies infectieuses - ANGERS -professionnels de santé extérieurs au CHU",
        "lon": -0.554632,
        "lat": 47.4816,
        "addr": "4 Rue Larrey 49100 Angers"
    },
    {
        "nom": "VANNES CHBA",
        "lon": -2.74753,
        "lat": 47.665,
        "addr": "20 Boulevard Maurice Guillaudot 56000 Vannes"
    },
    {
        "nom": "CH SUD-CHARENTE",
        "lon": -0.137683,
        "lat": 45.4742,
        "addr": "Route de Saint Bonnet 16300 Barbezieux-Saint-Hilaire"
    },
    {
        "nom": "CH Narbonne",
        "lon": 2.99935,
        "lat": 43.1808,
        "addr": "Boulevard Dr Lacroix 11100 Narbonne"
    },
    {
        "nom": "CHI Louis Raffali Manosque (Réservé aux professionnels de santé libéraux)",
        "lon": 5.80524,
        "lat": 43.8271,
        "addr": "702 Chemin Auguste Girard 04100 Manosque"
    },
    {
        "nom": "CENTRE CLINICAL DE SOYAUX",
        "lon": 0.201666,
        "lat": 45.6376,
        "addr": "2 Chemin de Fregeneuil 16800 Soyaux"
    },
    {
        "nom": "Centre de vaccination des Soignants professionnels de ville - CH Saintonge",
        "lon": -0.658243,
        "lat": 45.7468,
        "addr": "11 Boulevard Ambroise Pare 17100 Saintes"
    },
    {
        "nom": "CH Lozère",
        "lon": 3.49051,
        "lat": 44.5225,
        "addr": "53 Avenue du 8 Mai 1945 48000 Mende"
    },
    {
        "nom": "CH JONZAC (réservé aux professionnels de santé)",
        "lon": -0.433836,
        "lat": 45.4391,
        "addr": "4 Avenue Winston Churchill 17500 Jonzac"
    },
    {
        "nom": "CHU ROUEN - BATIMENT AUBETTE",
        "lon": 1.10911,
        "lat": 49.4398,
        "addr": "47 Boulevard Gambetta 76000 Rouen"
    },
    {
        "nom": "Covax Ambu - bâtiment ancien service rhumatologie du CH de Perpignan",
        "lon": 2.88759,
        "lat": 42.7257,
        "addr": "20  Avenue du Languedoc 66000 Perpignan"
    },
    {
        "nom": "CHI Digne les Bains (Réservé aux professionnels de santé libéraux)",
        "lon": 6.17575,
        "lat": 44.0703,
        "addr": "Quartier Saint Christophe 04000 Digne-les-Bains"
    },
    {
        "nom": "CH LA ROCHELLE (réservé aux professionnels de santé)",
        "lon": -1.14426,
        "lat": 46.1585,
        "addr": "Rue du Docteur Albert Schweitzer 17000 La Rochelle"
    },
    {
        "nom": "CH FECAMP - HALL DU RDC",
        "lon": 0.386192,
        "lat": 49.7461,
        "addr": "100 Avenue du Président François Mitterrand 76400 Fécamp"
    },
    {
        "nom": "Centre de vaccination de GAP - CMCL",
        "lon": 6.08431,
        "lat": 44.5614,
        "addr": "Boulevard Pierre et Marie Curie 05000 Gap"
    },
    {
        "nom": "Centre de vaccination anti-covid - Réservé aux professionnels de Santé CH Laval",
        "lon": -0.782253,
        "lat": 48.0656,
        "addr": "33 Rue du Haut Rocher 53000 Laval"
    },
    {
        "nom": "CH ROCHEFORT(réservé aux professionnels de santé)",
        "lon": -0.963273,
        "lat": 45.9671,
        "addr": "1 Avenue de Beligon 17300 Rochefort"
    },
    {
        "nom": "CHI Eure-seine site Evreux",
        "lon": 1.11602,
        "lat": 49.0315,
        "addr": "Léon Schwartzenberg 27000 Évreux"
    },
    {
        "nom": "Centre de vaccination de la ville de Nice",
        "lon": 7.26815,
        "lat": 43.7047,
        "addr": "10 Rue Hancy 06000 Nice"
    },
    {
        "nom": "CH Corte Tattone",
        "lon": 9.15487,
        "lat": 42.3016,
        "addr": "Avenue du 9 Septembre 20250 Corte"
    },
    {
        "nom": "Centre de vaccination de Bourg-en-Bresse - Gymnase St Roch",
        "lon": 5.22865,
        "lat": 46.1944,
        "addr": "20 Rue Charles Demia 01000 Bourg-en-Bresse"
    },
    {
        "nom": "Site gériatrique de l'Ayguerote CH de Bigorre",
        "lon": 0.0665153,
        "lat": 43.2345,
        "addr": "2 Rue de l'Ayguerote 65000 Tarbes"
    },
    {
        "nom": "CH ST-BRIEUC (réservé aux professionnels des secteurs de la santé et du médico-social)",
        "lon": -2.74847,
        "lat": 48.4905,
        "addr": "10 Rue Marcel Proust 22000 Saint-Brieuc"
    },
    {
        "nom": "CH Eure-seine Vernon",
        "lon": 1.4878,
        "lat": 49.0919,
        "addr": "5 rue du docteur Jules Burnet 27200 Vernon"
    },
    {
        "nom": "Centre de Vaccination - LE MANS- UC-IRSA",
        "lon": 0.220022,
        "lat": 47.9966,
        "addr": "178 Avenue Bollée 72000 Le Mans"
    },
    {
        "nom": "Centre de vaccination - Centre Hospitalier Moulins-Yzeure",
        "lon": 3.32521,
        "lat": 46.5703,
        "addr": "10 Avenue du Général de Gaulle 03000 Moulins"
    },
    {
        "nom": "Nancy - Tour Marcel Brot",
        "lon": 6.20247,
        "lat": 48.6779,
        "addr": "1 Rue Joseph Cugnot 54000 Nancy"
    },
    {
        "nom": "CH BRIVE",
        "lon": 1.53301,
        "lat": 45.1691,
        "addr": "1 Boulevard Doc Verlhac 19100 Brive-la-Gaillarde"
    },
    {
        "nom": "CH EU",
        "lon": 1.42086,
        "lat": 50.0502,
        "addr": "4 Rue de Cleves 76260 Eu"
    },
    {
        "nom": "CH Avranches Granville Site d'Avranches - salle de conseil de surveillance",
        "lon": -1.35147,
        "lat": 48.6932,
        "addr": "59 Rue de la Liberté 50300 Avranches"
    },
    {
        "nom": "CHU Brest - Site Cavale Blanche",
        "lon": -4.52822,
        "lat": 48.4019,
        "addr": "85 Rue Maximin Audemar 29200 Brest"
    },
    {
        "nom": "CH Jean Rougier - Cahors",
        "lon": 1.43712,
        "lat": 44.4447,
        "addr": "52 Place Antonin Bergon 46000 Cahors"
    },
    {
        "nom": "CH Avranches Granville Site de Granville - plateau des consultations",
        "lon": -1.56901,
        "lat": 48.8278,
        "addr": "849 Rue des Menneries 50400 Granville"
    },
    {
        "nom": "CH TULLE",
        "lon": 1.76995,
        "lat": 45.2703,
        "addr": "3 Place du Docteur Maschat 19000 Tulle"
    },
    {
        "nom": "Palais des festivals",
        "lon": 7.01799,
        "lat": 43.5513,
        "addr": "1 Boulevard de la Croisette 06400 Cannes"
    },
    {
        "nom": "Centre de vaccination de Verdun (Salle Cassin) (Equipe mixte CH/médecine de ville)",
        "lon": 5.3799,
        "lat": 49.1544,
        "addr": "Allee du Pre l'Eveque 55100 Verdun"
    },
    {
        "nom": "CH FLERS",
        "lon": -0.540239,
        "lat": 48.7491,
        "addr": "Rue Eugene Garnier 61100 Flers"
    },
    {
        "nom": "Centre vaccination Hopital Européen - Consultations médicales NEOLIS (Réservé aux professionnels de santé libéraux)",
        "lon": 5.37045,
        "lat": 43.3095,
        "addr": "106 Boulevard de Paris 13003 Marseille"
    },
    {
        "nom": "CH du Cotentin site Cherbourg- Plateau de consultations spécialités médicales",
        "lon": -1.61333,
        "lat": 49.6383,
        "addr": "46 Rue Val de Saire 50100 Cherbourg-en-Cotentin"
    },
    {
        "nom": "CH USSEL",
        "lon": 2.31344,
        "lat": 45.5446,
        "addr": "2 Avenue du Docteur Roullet 19200 Ussel"
    },
    {
        "nom": "CH GUERET",
        "lon": 1.86758,
        "lat": 46.1647,
        "addr": "28 Chemin des Amoureux 23000 Guéret"
    },
    {
        "nom": "Centre de vaccination Grand Public",
        "lon": 4.62071,
        "lat": 44.159,
        "addr": "Centre culturel Léo Lagrange - salle D - Place Flora Tristan 30200 Bagnols-sur-Cèze"
    },
    {
        "nom": "Centre de vaccination antiamarile - Hôpital « Simone Veil »",
        "lon": -1.46294,
        "lat": 49.5026,
        "addr": "1 avenue du huit mai 50700 Valognes"
    },
    {
        "nom": "Filature de l'Isle",
        "lon": 0.69758,
        "lat": 45.1995,
        "addr": "15 Chemin des Feutres de Toulon 24000 Périgueux"
    },
    {
        "nom": "Communauté Professionnelle Territoriale de Santé Nord Allier",
        "lon": 3.33256,
        "lat": 46.5622,
        "addr": "1 PLACE MARECHAL DE LATTRE DE TASSIGNY 03000 Moulins"
    },
    {
        "nom": "CH Gisors",
        "lon": 1.76574,
        "lat": 49.2796,
        "addr": "Route de Rouen 27140 Gisors"
    },
    {
        "nom": "CHU BORDEAUX - SITE PELLEGRIN",
        "lon": -0.603878,
        "lat": 44.8282,
        "addr": "1 PLACE AMELIE RABA LEON 33000 Bordeaux"
    },
    {
        "nom": "CH de la Dracénie Draguignan (Réservé aux professionnels de santé libéraux)",
        "lon": 6.44499,
        "lat": 43.5483,
        "addr": "Avenue Montferrat 83300 Draguignan"
    },
    {
        "nom": "CH Les Andelys",
        "lon": 1.39514,
        "lat": 49.2463,
        "addr": "quai Enguerrand de Marigny 27700 Les Andelys"
    },
    {
        "nom": "CH Bernay",
        "lon": 0.589182,
        "lat": 49.0904,
        "addr": "5 Rue Anne de Ticheville 27300 Bernay"
    },
    {
        "nom": "CMA Porto Vecchio",
        "lon": 9.2777,
        "lat": 41.6003,
        "addr": "Stade Claude Papi 20137 Porto-Vecchio"
    },
    {
        "nom": "CH Verneuil",
        "lon": 0.920467,
        "lat": 48.7419,
        "addr": "101 Boulevard des Poissonniers 27130 Verneuil d'Avre et d'Iton"
    },
    {
        "nom": "CHU BORDEAUX - SITE SAINT ANDRE",
        "lon": -0.578208,
        "lat": 44.8346,
        "addr": "1 Rue Jean Burguet 33000 Bordeaux"
    },
    {
        "nom": "CH DIEPPE",
        "lon": 1.07872,
        "lat": 49.9189,
        "addr": "avenue pasteur 76200 Dieppe"
    },
    {
        "nom": "CHU BORDEAUX - SITE GH SUD",
        "lon": -0.659829,
        "lat": 44.7973,
        "addr": "Avenue du Haut Lévèque 33600 Pessac"
    },
    {
        "nom": "CENTRE HOSPITALIER VALS D'ARDECHE - Bâtiment Esperanto 1er étage",
        "lon": 4.58376,
        "lat": 44.7308,
        "addr": "2  avenue Pasteur 07000 Privas"
    },
    {
        "nom": "CH Aunay Bayeux",
        "lon": -0.701236,
        "lat": 49.2744,
        "addr": "13 Rue de Nesmond 14400 Bayeux"
    },
    {
        "nom": "Centre hospitalier d'Aurillac  - Pôle Santé Publique",
        "lon": 2.43929,
        "lat": 44.9255,
        "addr": "50 Avenue de la République 15000 Aurillac"
    },
    {
        "nom": "CH ARCACHON",
        "lon": -1.11337,
        "lat": 44.6135,
        "addr": "AV JEAN HAMEAU 33260 La Teste-de-Buch"
    },
    {
        "nom": "CH de Rodez Hôpital Jacques Puel ",
        "lon": 2.55402,
        "lat": 44.3599,
        "addr": "8 Avenue de l'Hopital 12000 Rodez"
    },
    {
        "nom": "CHI Elbeuf",
        "lon": 1.04178,
        "lat": 49.3048,
        "addr": "4 rue du docteur villers 76410 Saint-Aubin-lès-Elbeuf"
    },
    {
        "nom": "Centre de vaccination du centre hospitalier de Valence",
        "lon": 4.90593,
        "lat": 44.9119,
        "addr": "179 a Boulevard Maréchal Juin 26000 Valence"
    },
    {
        "nom": "CH LIBOURNE",
        "lon": -0.229689,
        "lat": 44.9187,
        "addr": "112 Rue de la Marne 33500 Libourne"
    },
    {
        "nom": "Centre de vaccination de Sancoins - MSP en Berry",
        "lon": 2.91915,
        "lat": 46.828,
        "addr": "3 Rue de l'Industrie 18600 Sancoins"
    },
    {
        "nom": "Salle polyvalente du CHI Fréjus St Raphaël - site Bonnet (Réservé aux professionnels de santé libéraux)",
        "lon": 6.75333,
        "lat": 43.439,
        "addr": "240 avenue de Saint Lambert 83600 Fréjus"
    },
    {
        "nom": "Mairie d'Arcachon",
        "lon": -1.19475,
        "lat": 44.651,
        "addr": "10 Avenue du Parc 33120 Arcachon"
    },
    {
        "nom": "Urgences du CH de Saint Tropez (Réservé aux professionnels de santé libéraux)",
        "lon": 6.57315,
        "lat": 43.2506,
        "addr": "Route Départementale 559 83580 Gassin"
    },
    {
        "nom": "Centre de vaccination - réservé professionnels de santé et assimilés - CH Dreux",
        "lon": 1.38595,
        "lat": 48.7276,
        "addr": "44 Avenue du Pdt J Fitzgerald Kennedy 28100 Dreux"
    },
    {
        "nom": "Centre hospitalier universitaire de Grenoble CHUGA (RDC du Pavillon Chatin, face au bâtiment de la Direction Générale)",
        "lon": 5.74771,
        "lat": 45.2004,
        "addr": "8 Chemin Duhamel 38700 La Tronche"
    },
    {
        "nom": "Centre de vaccination du Centre Hospitalier de la Basse-Terre",
        "lon": -61.7298,
        "lat": 16.0047,
        "addr": "1171 Avenue Gaston Feuillard 97100 Basse-Terre"
    },
    {
        "nom": "Centre de vaccination réservé professionnels de santé et assimilés - CH Châteaudun",
        "lon": 1.35214,
        "lat": 48.0732,
        "addr": "Route de Jallans 28200 Châteaudun"
    },
    {
        "nom": "Clinique du Cap d'Or (Réservé aux professionnels de santé libéraux)",
        "lon": 5.86203,
        "lat": 43.1075,
        "addr": "1361 Av a Combattants Fr Indochine 83500 La Seyne-sur-Mer"
    },
    {
        "nom": "Salle des fêtes de Voiron",
        "lon": 5.5885,
        "lat": 45.3686,
        "addr": "Place Jacques Antoine GAU 38500 Voiron"
    },
    {
        "nom": "GHH site de monod",
        "lon": 0.184985,
        "lat": 49.5262,
        "addr": "29 Avenue Pierre Mendès France 76290 Montivilliers"
    },
    {
        "nom": "Centre de vaccination du CH de Dax - Hôpital Thermal",
        "lon": -1.05077,
        "lat": 43.7059,
        "addr": "Rue Saint Eutrope 40100 Dax"
    },
    {
        "nom": "CHRU Tours - Site de Bretonneau - Centre de vaccination international - réservé aux professionnels en exercice",
        "lon": 0.667766,
        "lat": 47.3869,
        "addr": "2 Boulevard Tonnellé 37000 Tours"
    },
    {
        "nom": "Clinique Vire",
        "lon": -0.896285,
        "lat": 48.841,
        "addr": "23 Rue des Acres 14500 Vire Normandie"
    },
    {
        "nom": "Centre de Vaccination du CH de Saint Sever",
        "lon": -0.57169,
        "lat": 43.7572,
        "addr": "3 Rue de la Guillerie 40500 Saint-Sever"
    },
    {
        "nom": "CH de Lisieux",
        "lon": 0.230798,
        "lat": 49.1463,
        "addr": "4 rue Roger Aini 14100 Lisieux"
    },
    {
        "nom": "Centre de vaccination- CHU Amiens",
        "lon": 2.29074,
        "lat": 49.9073,
        "addr": "Place Victor Pauchet 80080 Amiens"
    },
    {
        "nom": "Centre de vaccination du CHI de Mont de Marsan",
        "lon": -0.482295,
        "lat": 43.889,
        "addr": "35 Rue de la Ferme de Fatigue 40000 Mont-de-Marsan"
    },
    {
        "nom": "CHIVA (Pfizer / Astra Zeneca)",
        "lon": 1.61917,
        "lat": 43.0269,
        "addr": "4 Chemin de Barrau 09000 Saint-Jean-de-Verges"
    },
    {
        "nom": "Centre de vaccination de Bar-le-Duc (Salle Dumas) (Equipe mixte CH/médecine de ville)",
        "lon": 5.16697,
        "lat": 48.7795,
        "addr": "1 Place Sainte Catherine 55000 Bar-le-Duc"
    },
    {
        "nom": "Centre de vaccination de Bar sur Seine, MSP",
        "lon": 4.37361,
        "lat": 48.1193,
        "addr": "6 B Rue du Stade 10110 Bar-sur-Seine"
    },
    {
        "nom": "CHRU de Tours - Site de Trousseau - réservé aux professionnels en exercice",
        "lon": 0.722174,
        "lat": 47.3417,
        "addr": "Avenue de la République 37170 Chambray-lès-Tours"
    },
    {
        "nom": "CH Pont Audemer",
        "lon": 0.514494,
        "lat": 49.3467,
        "addr": "64 64 route de lisieux 27500 Pont-Audemer"
    },
    {
        "nom": "CHP Saint Martin ",
        "lon": -0.380526,
        "lat": 49.1981,
        "addr": "18 Rue des Roquemonts 14000 Caen"
    },
    {
        "nom": "Centre de vaccination - CH PÉRONNE",
        "lon": 2.93133,
        "lat": 49.9346,
        "addr": "Place du Jeu de Paume 80200 Péronne"
    },
    {
        "nom": "CH AGEN",
        "lon": 0.636113,
        "lat": 44.2168,
        "addr": "21 Route Villeneuve rn 21 47000 Agen"
    },
    {
        "nom": "Centre de vaccination de Metz - HIA LEGOUEST Maison médicale de garde CPTS Metz",
        "lon": 6.18648,
        "lat": 49.1138,
        "addr": "Rue des Frères Lacretelle 57070 Metz"
    },
    {
        "nom": "Centre Hospitalier de PAU",
        "lon": -0.34984,
        "lat": 43.3242,
        "addr": "4 Boulevard Hauterive 64000 Pau"
    },
    {
        "nom": "CH BAYONNE",
        "lon": -1.48158,
        "lat": 43.4823,
        "addr": "13 Avenue Interne Jacques Loeb 64100 Bayonne"
    },
    {
        "nom": "Centre de vaccination au  CHU DE SAINT-ETIENNE - Hôpital Nord - Salle de Conférence - Hall AB",
        "lon": 4.36293,
        "lat": 45.4817,
        "addr": "108 bis Avenue Albert Raimond 42270 Saint-Priest-en-Jarez"
    },
    {
        "nom": "CH OLORON",
        "lon": -0.617797,
        "lat": 43.1971,
        "addr": "1 Avenue Alexander Fleming 64400 Oloron-Sainte-Marie"
    },
    {
        "nom": "Centre de vaccination du CH du Puy en Velay (Emile Roux)",
        "lon": 3.8747,
        "lat": 45.0471,
        "addr": "Stade Charles MASSOT - Place de la libération 43000 Le Puy-en-Velay"
    },
    {
        "nom": "Centre de vaccination Sainte Barbe du Groupe Hospitalier Saint Vincent",
        "lon": 7.73556,
        "lat": 48.5822,
        "addr": "29 Rue du Faubourg National 67000 Strasbourg"
    },
    {
        "nom": "Centre Hospitalier Ariège Couserans (Pfizer / Moderna))",
        "lon": 1.13168,
        "lat": 42.9997,
        "addr": "228 Roses 09190 Saint-Lizier"
    },
    {
        "nom": "CH NIORT",
        "lon": -0.458929,
        "lat": 46.3155,
        "addr": "40 Avenue Charles de Gaulle 79000 Niort"
    },
    {
        "nom": "Maison Médicale de Garde - hôpital de Brignoles (Réservé aux professionnels de santé libéraux)",
        "lon": 6.06584,
        "lat": 43.4048,
        "addr": "95 Rue Joseph Monnier 83170 Brignoles"
    },
    {
        "nom": "Centre de vaccination de Saverne  - plus de 75 ans (et 50-74 ans avec ordonnance)(",
        "lon": 7.356,
        "lat": 48.7447,
        "addr": "19 Côte de Saverne 67700 Saverne"
    },
    {
        "nom": "Centre de vaccination du Centre Hospitalier Universitaire DE CLERMONT-FERRAND, site Gabriel MONTPIED",
        "lon": 3.09131,
        "lat": 45.7593,
        "addr": "58 Rue Montalembert 63000 Clermont-Ferrand"
    },
    {
        "nom": "Centre de vaccination CH Avignon",
        "lon": 4.80475,
        "lat": 43.921,
        "addr": "305 Rue Raoul Follereau 84000 Avignon"
    },
    {
        "nom": "CHU POITIERS - Site de LA MILETRIE",
        "lon": 0.379103,
        "lat": 46.5611,
        "addr": "2 Rue de la Milètrie 86000 Poitiers"
    },
    {
        "nom": "CPTS Synapse Comtat Venaissin / CH de Carpentras",
        "lon": 5.029,
        "lat": 44.0461,
        "addr": "24 Rond Point de l'Amitie 84200 Carpentras"
    },
    {
        "nom": "Centre médical du Cardié (Pfizer)",
        "lon": 1.5956,
        "lat": 42.9643,
        "addr": "2 ter Avenue du Cardiè 09000 Foix"
    },
    {
        "nom": "Centre de vaccination MIN Cavaillon",
        "lon": 5.04147,
        "lat": 43.8239,
        "addr": "92 Avenue Pierre Grand 84300 Cavaillon"
    },
    {
        "nom": "Centre de vaccination - CHU POITIERS - Site de CHÂTELLERAULT",
        "lon": 0.556456,
        "lat": 46.8316,
        "addr": "Rue Docteur Luc Montagnier 86100 Châtellerault"
    },
    {
        "nom": "Centre de vaccination de St Dié des Vosges (Espace Carbonnar)",
        "lon": 6.94806,
        "lat": 48.2879,
        "addr": "27 Place de l'Europe 88100 Saint-Dié-des-Vosges"
    },
    {
        "nom": "Centre de vaccination de Thiers - Centre hospitalier - Locaux USN 2",
        "lon": 3.52101,
        "lat": 45.8563,
        "addr": "Route de Fau 63300 Thiers"
    },
    {
        "nom": "Centre de vaccination de Haguenau ",
        "lon": 7.7795,
        "lat": 48.799,
        "addr": "64 Av du Professeur Rene Leriche 67500 Haguenau"
    },
    {
        "nom": "POLYCLINIQUE DE POITIERS",
        "lon": 0.366681,
        "lat": 46.5642,
        "addr": "1 Rue de la Providence 86000 Poitiers"
    },
    {
        "nom": "Centre de vaccination du Centre Hospitalier d'Issoire",
        "lon": 3.25169,
        "lat": 45.5412,
        "addr": "13 Rue du Docteur Sauvat 63500 Issoire"
    },
    {
        "nom": "CHU LIMOGES - SITE DUPUYTREN 1",
        "lon": 1.23276,
        "lat": 45.8142,
        "addr": "2 Avenue Martin Luther King 87000 Limoges"
    },
    {
        "nom": "Centre de vaccination Sélestat -Les Tanzmatten ",
        "lon": 7.45774,
        "lat": 48.2566,
        "addr": "10 Quai des Tanneurs 67600 Sélestat"
    },
    {
        "nom": "CH Carcassonne",
        "lon": 2.39503,
        "lat": 43.2215,
        "addr": "60 Chemin de la Madeleine 11000 Carcassonne"
    },
    {
        "nom": "Centre de vaccination- CH Saint-Quentin",
        "lon": 3.26966,
        "lat": 49.8623,
        "addr": "1 Rue Michel de l'Hospital 02100 Saint-Quentin"
    },
    {
        "nom": "Centre de vaccination départemental - Dispensaire Emile Roux",
        "lon": 3.10775,
        "lat": 45.7867,
        "addr": "11 Rue Vaucanson 63100 Clermont-Ferrand"
    },
    {
        "nom": "CH ST YRIEIX",
        "lon": 1.20346,
        "lat": 45.515,
        "addr": "5 Place du Président Magnaud 87500 Saint-Yrieix-la-Perche"
    },
    {
        "nom": "CHU Nîmes",
        "lon": 4.32086,
        "lat": 43.8234,
        "addr": "286 Rue du Professeur Robert Debre 30900 Nîmes"
    },
    {
        "nom": "CH SAINT JUNIEN",
        "lon": 0.897567,
        "lat": 45.8886,
        "addr": "12 Rue Chateaubriand 87200 Saint-Junien"
    },
    {
        "nom": "Centre de vaccination - Hôpital de la Croix Rousse- HCL",
        "lon": 4.83035,
        "lat": 45.7823,
        "addr": "103  Grande rue de la Croix-Rousse 69004 Lyon"
    },
    {
        "nom": "Centre de vaccination de Neufchateau",
        "lon": 5.7077,
        "lat": 48.3704,
        "addr": "1280 Avenue de la Division Leclerc 88300 Neufchâteau"
    },
    {
        "nom": "POLYCLINIQUE - SITE CHENIEUX ",
        "lon": 1.28502,
        "lat": 45.8128,
        "addr": "18 Rue Général Catroux 87000 Limoges"
    },
    {
        "nom": "CH Alès",
        "lon": 4.0975,
        "lat": 44.1471,
        "addr": "811 avenue du Dr Jean Goubert 30100 Alès"
    },
    {
        "nom": "Centre de vaccination -Hôpital Edouard Herriot-HCL",
        "lon": 4.88009,
        "lat": 45.7433,
        "addr": "5 Place d'Arsonval 69003 Lyon"
    },
    {
        "nom": "Centre de vaccination- Maison de Santé Pluriprofessionnelle Champagne Picardie Guise",
        "lon": 3.62617,
        "lat": 49.9017,
        "addr": "41 Rue André Godin 02120 Guise"
    },
    {
        "nom": "Centre de vaccination de Remiremont",
        "lon": 6.59247,
        "lat": 48.0142,
        "addr": "1 Rue Georges Lang 88200 Remiremont"
    },
    {
        "nom": "Centre de vaccination -Hôpital Lyon sud - HCL",
        "lon": 4.80642,
        "lat": 45.7021,
        "addr": "165 Chemin du Grand Revoyet 69310 Pierre-Bénite"
    },
    {
        "nom": "Centre de vaccination d'Epinal (CH Emile Durkheim)",
        "lon": 6.4541,
        "lat": 48.1794,
        "addr": "3 Avenue Robert Schuman 88000 Épinal"
    },
    {
        "nom": "Centre de vaccination du CHUM",
        "lon": -61.0386,
        "lat": 14.6331,
        "addr": "La Meynard 97200 Fort-de-France"
    },
    {
        "nom": "Centre de vaccination - CH LAON",
        "lon": 3.61128,
        "lat": 49.5622,
        "addr": "33 Rue Marcellin Berthelot 02000 Laon"
    },
    {
        "nom": "Centre de vaccination de l'Hôpital Nord-Ouest-Villefranche - Hôpital de Gleizé",
        "lon": 4.69514,
        "lat": 46.005,
        "addr": "Route d'EPINAY- Parking P2 69400 Gleizé"
    },
    {
        "nom": "Centre de vaccination - CH Soissons ",
        "lon": 3.33601,
        "lat": 49.3709,
        "addr": "46 Avenue du Général de Gaulle 02200 Soissons"
    },
    {
        "nom": "Centre de vaccination COVID - CHAMBERY Centre Hospitalier",
        "lon": 5.90799,
        "lat": 45.5642,
        "addr": "740 Faubourg Maché - Espace santé publique - bâtiment Saint Hélène - 2éme étage 73000 Chambéry"
    },
    {
        "nom": "Centre de vaccination- CH Château-Thierry",
        "lon": 3.40711,
        "lat": 49.0508,
        "addr": "Route de Verdilly 02400 Château-Thierry"
    },
    {
        "nom": "CENTRE HOSPITALIER  ANNECY GENEVOIS",
        "lon": 6.11774,
        "lat": 45.9342,
        "addr": "1  avenue de l'hôpital 74370 Epagny Metz-Tessy"
    },
    {
        "nom": "Centre de vaccination - CH Chauny",
        "lon": 3.23436,
        "lat": 49.6258,
        "addr": "94 Rue Anciens Combattants Afn Tom 02300 Chauny"
    },
    {
        "nom": "CENTRE HOSPITALIER D'ARDECHE NORD (Professionnels de santé uniquement)",
        "lon": 4.66582,
        "lat": 45.2419,
        "addr": "1 rue du Bon Pasteur 07100 Annonay"
    },
    {
        "nom": "CH Mas Careiron",
        "lon": 4.41307,
        "lat": 44.0083,
        "addr": "16 bis Chemin du Paradis 30700 Uzès"
    },
    {
        "nom": "Centre de vaccination - CH Hirson",
        "lon": 4.07401,
        "lat": 49.9252,
        "addr": "40 Rue aux Loups 02500 Hirson"
    },
    {
        "nom": "Centre de vaccination du CH d'Aubenas - Maison médicale de garde",
        "lon": 4.39797,
        "lat": 44.6129,
        "addr": "14 Avenue de Bellande 07200 Aubenas"
    },
    {
        "nom": "Centre de vaccination - Hopital privé Saint Claude (ELSAN)",
        "lon": 3.31035,
        "lat": 49.8595,
        "addr": "1 Boulevard du Docteur Schweitzer 02100 Saint-Quentin"
    },
    {
        "nom": "CDV31 Toulouse Pierre Baudis",
        "lon": 1.43638,
        "lat": 43.6109,
        "addr": "11 Esplanade Compans Caffarelli 31000 Toulouse"
    },
    {
        "nom": "Centre de vaccination du GHSIF Melun",
        "lon": 2.67334,
        "lat": 48.5396,
        "addr": "8 Rue de Vaux 77000 Melun"
    },
    {
        "nom": "MSP Paul BOULANGER",
        "lon": 3.03465,
        "lat": 50.6062,
        "addr": "1 Boulevard du Professeur Jules Leclercq 59000 Lille"
    },
    {
        "nom": "CH DINAN (réservé aux professionnels des secteurs de la santé et du médico-social)",
        "lon": -2.04645,
        "lat": 48.4451,
        "addr": "76 Rue Chateaubriand 22100 Dinan"
    },
    {
        "nom": "CH LANNION (réservé aux professionnels des secteurs de la santé et du médico-social)",
        "lon": -3.46443,
        "lat": 48.7223,
        "addr": "21 Rue de Trorozec 22300 Lannion"
    },
    {
        "nom": "CH MORLAIX (anciens locaux EFS)",
        "lon": -3.83016,
        "lat": 48.5693,
        "addr": "15 Rue de Kersaint-gilly 29600 Morlaix"
    },
    {
        "nom": "CH PAIMPOL (réservé aux professionnels des secteurs de la santé et du médico-social)",
        "lon": -3.03561,
        "lat": 48.7733,
        "addr": "36 Chemin de Kerpuns 22500 Paimpol"
    },
    {
        "nom": "Centre de vaccination - Clinique Sainte Marie (GHICL) ",
        "lon": 3.24021,
        "lat": 50.1681,
        "addr": "22 Rue Watteau 59400 Cambrai"
    },
    {
        "nom": "ST-MALO - CH",
        "lon": -2.00786,
        "lat": 48.6383,
        "addr": "1 Rue de la Marne 35400 Saint-Malo"
    },
    {
        "nom": "centre de vaccination du Prorel BRIANCON",
        "lon": 6.63131,
        "lat": 44.898,
        "addr": "9 Avenue René Froger 05100 Briançon"
    },
    {
        "nom": "CHIC Site QUIMPER hôpital Laënnec (réservé aux professionnels des secteurs de la santé et du médico-social)",
        "lon": -4.09496,
        "lat": 47.9878,
        "addr": "14 Avenue Yves Thepot 29000 Quimper"
    },
    {
        "nom": "Centre de vaccination du CH-Buech Durance LARAGNE",
        "lon": 5.8166,
        "lat": 44.32,
        "addr": "rue du Docteur Provansal  05300 Laragne-Montéglin"
    },
    {
        "nom": "Hopital de Breil / MSP de la Roya",
        "lon": 7.51483,
        "lat": 43.9457,
        "addr": "2 Rue Cordier 06540 Breil-sur-Roya"
    },
    {
        "nom": "Centre de vaccination - CH Douai",
        "lon": 3.10238,
        "lat": 50.3379,
        "addr": "1 bis Route de Cambrai 59187 Dechy"
    },
    {
        "nom": "Centre de vaccination - HOPITAL PRIVE DE VILLENEUVE D'ASCQ ",
        "lon": 3.15149,
        "lat": 50.6543,
        "addr": "20 Avenue de la Reconnaissance 59491 Villeneuve-d'Ascq"
    },
    {
        "nom": "Centre de vaccination - HOPITAL PRIVÉ LE BOIS",
        "lon": 3.03286,
        "lat": 50.6341,
        "addr": "44 Avenue Marx Dormoy 59000 Lille"
    },
    {
        "nom": "Centre de vaccination - CH DUNKERQUE",
        "lon": 2.39565,
        "lat": 51.0379,
        "addr": "130 Avenue Louis Herbeaux 59240 Dunkerque"
    },
    {
        "nom": "CHI Robert Ballanger",
        "lon": 2.52455,
        "lat": 48.9533,
        "addr": "Boulevard Robert Ballanger 93600 Aulnay-sous-Bois"
    },
    {
        "nom": "Centre de vaccination - CH Fourmies",
        "lon": 4.05915,
        "lat": 50.0095,
        "addr": "13 Rue de l'Hôpital 59610 Fourmies"
    },
    {
        "nom": "Centre de vaccination CASH de Nanterre",
        "lon": 2.22204,
        "lat": 48.9137,
        "addr": "403 Avenue de la République 92000 Nanterre"
    },
    {
        "nom": "Centre de vaccination - POLYCLINIQUE VAUBAN",
        "lon": 3.51218,
        "lat": 50.3602,
        "addr": "10 Avenue Vauban 59300 Valenciennes"
    },
    {
        "nom": "Centre de Poissy",
        "lon": 2.02999,
        "lat": 48.9243,
        "addr": "78 Avenue Blanche de Castille 78300 Poissy"
    },
    {
        "nom": "Centre de vaccination - POLYCLINIQUE DU PARC",
        "lon": 3.55116,
        "lat": 50.3734,
        "addr": "48 bis Rue Henri Barbusse 59880 Saint-Saulve"
    },
    {
        "nom": "Centre de vaccination - CH LE QUESNOY",
        "lon": 3.62755,
        "lat": 50.2515,
        "addr": "90 Rue du 8 Mai 1945 59530 Le Quesnoy"
    },
    {
        "nom": "CHSE ETAMPES",
        "lon": 2.15173,
        "lat": 48.4211,
        "addr": "26 Avenue Charles de Gaulle 91150 Étampes"
    },
    {
        "nom": "Centre de vaccination - CH de beauvais - locaux de l’IFSI ",
        "lon": 2.07134,
        "lat": 49.4507,
        "addr": "40 Avenue Léon Blum 60000 Beauvais"
    },
    {
        "nom": "Lagny Centre de vaccination du Totem ",
        "lon": 2.70773,
        "lat": 48.8673,
        "addr": "SALLE POLYVALENTE TOTEM Avenue ANDRE MALRAUX 77400 Lagny-sur-Marne"
    },
    {
        "nom": "Centre de vaccination - Centre Hospitalier Intercommunal de Compiègne-Noyon",
        "lon": 2.79026,
        "lat": 49.3871,
        "addr": "8 Avenue Henri Adnot 60200 Compiègne"
    },
    {
        "nom": "CENTRE RUEIL-MALMAISON",
        "lon": 2.16157,
        "lat": 48.8719,
        "addr": "312 Avenue Napoléon Bonaparte 92500 Rueil-Malmaison"
    },
    {
        "nom": "AVICENNE",
        "lon": 2.42922,
        "lat": 48.9151,
        "addr": "125 Rue de Stalingrad 93000 Bobigny"
    },
    {
        "nom": "Centre de vaccination - CH Senlis GHPSO",
        "lon": 2.57553,
        "lat": 49.1961,
        "addr": "14 Avenue Paul Rouge 60300 Senlis"
    },
    {
        "nom": "CH SAINT-DENIS",
        "lon": 2.37253,
        "lat": 48.936,
        "addr": "2 Rue du Docteur Delafontaine 93200 Saint-Denis"
    },
    {
        "nom": "CH André Grégoire de Montreuil ",
        "lon": 2.45387,
        "lat": 48.8784,
        "addr": "56 Boulevard de la Boissière 93100 Montreuil"
    },
    {
        "nom": "Centre de vaccination - CH Arras",
        "lon": 2.7551,
        "lat": 50.2969,
        "addr": "57 Avenue Winston Churchill 62000 Arras"
    },
    {
        "nom": "Centre de vaccination - CH de Bapaume ",
        "lon": 2.85692,
        "lat": 50.1036,
        "addr": "57 Rue de la République 62450 Bapaume"
    },
    {
        "nom": "GHI Le raincy-Montfermeil",
        "lon": 2.57169,
        "lat": 48.9001,
        "addr": "10 Rue du Génèral Leclerc 93370 Montfermeil"
    },
    {
        "nom": "Centre de vaccination - HPL CMCO Cote d'Opale",
        "lon": 1.64472,
        "lat": 50.7235,
        "addr": "173 bis Route de Desvres 62280 Saint-Martin-Boulogne"
    },
    {
        "nom": "CH INTERCOMMUNAL DE VILLENEUVE SAINT GEORGE",
        "lon": 2.44846,
        "lat": 48.7245,
        "addr": "40 Allée de la Source 94190 Villeneuve-Saint-Georges"
    },
    {
        "nom": "VICTOR DUPOUY",
        "lon": 2.23961,
        "lat": 48.9454,
        "addr": "69 Rue du Lieutenant Colonel Prudhon 95100 Argenteuil"
    },
    {
        "nom": "CENTRE DE VACCINATION AMBULATOIRE ALFORTVILLE",
        "lon": 2.41793,
        "lat": 48.8053,
        "addr": "é- rue Joseph Francheschi 94140 Alfortville"
    },
    {
        "nom": "Centre Hospitalier de Gonesse",
        "lon": 2.45309,
        "lat": 48.9941,
        "addr": "2 Boulevard du 19 Mars 1962 95500 Gonesse"
    },
    {
        "nom": "CENTRE NOGENT SUR MARNE",
        "lon": 2.49234,
        "lat": 48.8383,
        "addr": "2  rue Jean Monnet (Maison des associations Simone Veil) 94130 Nogent-sur-Marne"
    },
    {
        "nom": "Centre de vaccination - Clinique Saint Omer",
        "lon": 2.26639,
        "lat": 50.7301,
        "addr": "71 Rue Ambroise Paré 62575 Blendecques"
    },
    {
        "nom": "Centre de vaccination - CH Béthune, Service Aire cancer ",
        "lon": 2.67032,
        "lat": 50.5163,
        "addr": "27 Rue Delbecque 62660 Beuvry"
    },
    {
        "nom": "La Commanderie",
        "lon": 5.49767,
        "lat": 47.0871,
        "addr": "2 Rue d'Azans 39100 Dole"
    },
    {
        "nom": "MSP Mercus Tarascon (Pfizer)",
        "lon": 1.60726,
        "lat": 42.8476,
        "addr": "1 bis Rue des évadés 09400 Tarascon-sur-Ariège"
    },
    {
        "nom": "Cabinet médical de Saverdun (Pfizer)",
        "lon": 1.57462,
        "lat": 43.2403,
        "addr": "3 Rue Louis Pasteur 09700 Saverdun"
    },
    {
        "nom": "CH Castelnaudary - Jean Pierre Cassabel",
        "lon": 1.96212,
        "lat": 43.3152,
        "addr": "19 Avenue Monseigneur de Langle 11400 Castelnaudary"
    },
    {
        "nom": "Villefrance-De-Rouergue",
        "lon": 2.03243,
        "lat": 44.344,
        "addr": "Rue des treize pierres 12200 Villefranche-de-Rouergue"
    },
    {
        "nom": "Centre de Vaccination Millau",
        "lon": 3.07267,
        "lat": 44.1105,
        "addr": "74 Avenue Charles de Gaulle 12100 Millau"
    },
    {
        "nom": "CDV31 Saint Jory",
        "lon": 1.37877,
        "lat": 43.7437,
        "addr": "2 Chemin de Bougeng 31790 Saint-Jory"
    },
    {
        "nom": "MONTPELLIER Maison médicale de garde",
        "lon": 3.87944,
        "lat": 43.6264,
        "addr": "2 Rue des Tourterelles 34090 Montpellier"
    },
    {
        "nom": "MONTPELLIER CVP Bouisson Bertrand",
        "lon": 3.87333,
        "lat": 43.6127,
        "addr": "5 Rue Ecole de Médecine 34000 Montpellier"
    },
    {
        "nom": "Centre de vaccination - CH Calais, Salle polyvalente de l’EHPAD la Roselière, ",
        "lon": 1.89115,
        "lat": 50.9398,
        "addr": "1601 Boulevard des Justes 62100 Calais"
    },
    {
        "nom": "Centre de vaccination - Polyclinique Hénin Beaumont (AHNAC)",
        "lon": 2.94996,
        "lat": 50.4353,
        "addr": "1110 Route de Courrieres 62110 Hénin-Beaumont"
    },
    {
        "nom": "VAILHAUQUES Service de Santé SDIS 34",
        "lon": 3.73874,
        "lat": 43.6439,
        "addr": "150 Rue Super Nova 34570 Vailhauquès"
    },
    {
        "nom": "Centre de vaccination - CH LENS",
        "lon": 2.8208,
        "lat": 50.4395,
        "addr": "99 Route de la Bassée 62300 Lens"
    },
    {
        "nom": "Centre de vaccination - MSPP Léonard de Vinci, sur site centre hospitalier Ternois",
        "lon": 2.32167,
        "lat": 50.3784,
        "addr": "172 Rue d'Hesdin 62130 Gauchin-Verloingt"
    },
    {
        "nom": "CH Figeac",
        "lon": 2.02997,
        "lat": 44.6103,
        "addr": "Stade du Calvaire boulevard Teulié  46100 Figeac"
    },
    {
        "nom": "CH Jean Coulon - Gourdon",
        "lon": 1.37941,
        "lat": 44.7375,
        "addr": "Foyer Daniel ROQUES  rue hivernerie 46300 Gourdon"
    },
    {
        "nom": "MSP SAINT CHELY D'APCHER - Maison des services",
        "lon": 3.33208,
        "lat": 44.8558,
        "addr": "Route de saugues 48140 Le Malzieu-Ville"
    },
    {
        "nom": "CENTRE DE VACCINATION DE LOURDES - Espace Robert Hossein",
        "lon": -0.0417883,
        "lat": 43.1038,
        "addr": "19 Avenue Alexandre Marqui 65100 Lourdes"
    },
    {
        "nom": "CENTRE DE VACCINATION DE LANNEMEZAN",
        "lon": 0.384758,
        "lat": 43.1237,
        "addr": "Salle des fêtes - Rue du Maréchal Juin 65300 Lannemezan"
    },
    {
        "nom": "CENTRE DE VACCINATION DE BAGNERES-DE-BIGORRE",
        "lon": 0.155363,
        "lat": 43.0674,
        "addr": "Halle aux grains - Place Eugène Toujas 65200 Bagnères-de-Bigorre"
    },
    {
        "nom": "GCS Pôle Sanitaire Cerdan",
        "lon": 2.02558,
        "lat": 42.4437,
        "addr": "11  cami de la ribereta - bat la ribereta 66800 Err"
    },
    {
        "nom": "MSP Les Angles",
        "lon": 2.08671,
        "lat": 42.5856,
        "addr": "Route de la Foret 66210 Les Angles"
    },
    {
        "nom": "CH Prades",
        "lon": 2.4173,
        "lat": 42.626,
        "addr": "route de Cattlar 66500 Prades"
    },
    {
        "nom": "MSP Font Romeu",
        "lon": 2.04082,
        "lat": 42.4995,
        "addr": "28 Boulevard du Cambre d'Aze 66120 Font-Romeu-Odeillo-Via"
    },
    {
        "nom": "CH Albi",
        "lon": 2.14272,
        "lat": 43.926,
        "addr": "22 Boulevard Général Sibille 81000 Albi"
    },
    {
        "nom": "CH Castres",
        "lon": 2.26272,
        "lat": 43.5657,
        "addr": "6 Avenue de la Montagne Noire 81100 Castres"
    },
    {
        "nom": "Clinique du Sidobre",
        "lon": 2.27349,
        "lat": 43.5959,
        "addr": "141 Chemin de Saint Hippolyte 81100 Castres"
    },
    {
        "nom": "CH Montauban",
        "lon": 1.35177,
        "lat": 44.0223,
        "addr": "100 Rue Léon Cladel 82000 Montauban"
    },
    {
        "nom": "CH Nègrepelisse ",
        "lon": 1.52185,
        "lat": 44.0743,
        "addr": "31 Rue de Turenne 82800 Nègrepelisse"
    },
    {
        "nom": "Centre de vaccination - Institut Médical Rééducation et réadaptation - Breteuil - LNA Santé",
        "lon": 2.2986,
        "lat": 49.6313,
        "addr": "32 Rue de Paris 60120 Breteuil"
    },
    {
        "nom": "Centre de vaccination - CH Chaumont en Vexin ",
        "lon": 1.88725,
        "lat": 49.2686,
        "addr": "34 Rue Pierre Budin 60240 Chaumont-en-Vexin"
    },
    {
        "nom": "CH Agglomération de Nevers",
        "lon": 3.12233,
        "lat": 46.9799,
        "addr": "1 Avenue Patrick Guillot 58000 Nevers"
    },
    {
        "nom": "Centre de vaccination - CHI Clermont",
        "lon": 2.44009,
        "lat": 49.3824,
        "addr": "Rue Guy Boulet 60840 Breuil-le-Sec"
    },
    {
        "nom": "Centre de vaccination - CH CREIL GHPSO ",
        "lon": 2.46023,
        "lat": 49.2477,
        "addr": "71 Boulevard Laennec 60100 Creil"
    },
    {
        "nom": "CH de Vesoul - centre pour professionnels de santé",
        "lon": 6.13852,
        "lat": 47.6364,
        "addr": "2 avenue René Heymes 70000 Vesoul"
    },
    {
        "nom": "Centre de vaccination - Polyclinique SAINT COME",
        "lon": 2.80901,
        "lat": 49.4031,
        "addr": "7 Rue Jean-jacques Bernard 60200 Compiègne"
    },
    {
        "nom": "Centre de vaccination - CH LE CATEAU",
        "lon": 3.53562,
        "lat": 50.1051,
        "addr": "28 Boulevard Paturle 59360 Le Cateau-Cambrésis"
    },
    {
        "nom": "Centre de vaccination du CH William Morey",
        "lon": 4.84079,
        "lat": 46.777,
        "addr": "4 Rue Capitaine Drillien 71100 Chalon-sur-Saône"
    },
    {
        "nom": "Centre hospitalier de Mâcon",
        "lon": 4.81368,
        "lat": 46.3148,
        "addr": "350 boulevard Louis Escande 71000 Mâcon"
    },
    {
        "nom": "Centre de vaccination - Clinique de Flandres",
        "lon": 2.38384,
        "lat": 51.0039,
        "addr": "300 Rue des Forts 59210 Coudekerque-Branche"
    },
    {
        "nom": "CH LA SOUTERRAINE",
        "lon": 1.48104,
        "lat": 46.2358,
        "addr": "12 Rue Pasteur 23300 La Souterraine"
    },
    {
        "nom": "LODEVE Centre vaccination ",
        "lon": 3.31809,
        "lat": 43.7331,
        "addr": "1 bis Rue du 4 Septembre 34700 Lodève"
    },
    {
        "nom": "CH AUBUSSON - SITE LE MONT",
        "lon": 2.18408,
        "lat": 45.9602,
        "addr": "1 Rue Henry Dunant 23200 Aubusson"
    },
    {
        "nom": "POLE DE SANTE DU VILLENEUVOIS",
        "lon": 0.745913,
        "lat": 44.4065,
        "addr": "Route de Fumel 47300 Villeneuve-sur-Lot"
    },
    {
        "nom": "Centre vaccinal de l'auxerrois",
        "lon": 3.55563,
        "lat": 47.804,
        "addr": "2 Boulevard de Verdun 89000 Auxerre"
    },
    {
        "nom": "Hôpital Nord Franche-Comté",
        "lon": 6.87295,
        "lat": 47.5763,
        "addr": "100 Route de Moval 90400 Trévenans"
    },
    {
        "nom": "ESPACE EXPO MARMANDE (CHIC MARMANDE)",
        "lon": 0.143191,
        "lat": 44.5085,
        "addr": "6 Avenue Francois Mitterrand 47200 Marmande"
    },
    {
        "nom": "BRAZEY-EN-PLAINE Salle polyvalente Georges Balme",
        "lon": 5.2137,
        "lat": 47.1314,
        "addr": "Rue Joseph Magnien 21470 Brazey-en-Plaine"
    },
    {
        "nom": "Centre de vaccination - CHRSO et CPTS Audomaroise, Salle des sports du pavillon 3 – CH St Omer",
        "lon": 2.24448,
        "lat": 50.7001,
        "addr": "Rue de Blendecques 62570 Helfaut"
    },
    {
        "nom": "Parc des expositions Jura Parc",
        "lon": 5.53949,
        "lat": 46.6759,
        "addr": "Rue du 19 mars 1962 39570 Montmorot"
    },
    {
        "nom": "CHU Dijon (Bâtiment Courtois)",
        "lon": 5.07015,
        "lat": 47.3222,
        "addr": "10 Bd Mal de Lattre de Tassigny 21000 Dijon"
    },
    {
        "nom": "Centre de vaccination - CH Saint-Amand",
        "lon": 3.43375,
        "lat": 50.4455,
        "addr": "19 Rue des Anciens d'Afrique du Nord 59230 Saint-Amand-les-Eaux"
    },
    {
        "nom": "CH de Thuir",
        "lon": 2.74971,
        "lat": 42.6293,
        "addr": "Avenue du Roussillon 66300 Thuir"
    },
    {
        "nom": "Centre de vaccination Argelès sur Mer",
        "lon": 3.02434,
        "lat": 42.5504,
        "addr": "1 Allee Ferdinand Buisson 66700 Argelès-sur-Mer"
    },
    {
        "nom": "Centre de vaccination Saint Cyprien",
        "lon": 3.03124,
        "lat": 42.6051,
        "addr": "Stade les capellans 66750 Saint-Cyprien"
    },
    {
        "nom": "Centre de vaccination de Céret ",
        "lon": 2.7492,
        "lat": 42.4843,
        "addr": "Boulevard Lafayette 66400 Céret"
    },
    {
        "nom": "centre de vaccination CH EMBRUN",
        "lon": 6.49239,
        "lat": 44.561,
        "addr": "8 rue Pierre et Marie Curie 05200 Embrun"
    },
    {
        "nom": "Centre de vaccination de la Trinité",
        "lon": -60.965,
        "lat": 14.7369,
        "addr": "Rue Jean Eugène Fatier - Maison médicale de garde de la Trinité 97220 La Trinité"
    },
    {
        "nom": "Centre de vaccination du Marin",
        "lon": -60.8692,
        "lat": 14.471,
        "addr": "Rez-de-chaussée – Bat A1 - Boulevard Allègre 97290 Le Marin"
    },
    {
        "nom": "APHM Hôpital Sainte Marguerite",
        "lon": 5.41234,
        "lat": 43.2627,
        "addr": "270 Boulevard de Sainte Marguerite 13009 Marseille"
    },
    {
        "nom": "IHU - Méditerranée Infection",
        "lon": 5.40007,
        "lat": 43.2899,
        "addr": "19-21 Boulevard Jean Moulin 13005 Marseille"
    },
    {
        "nom": "CH VITRE - Parc expo",
        "lon": -1.19479,
        "lat": 48.1091,
        "addr": "Chemin du Feil, Hall 3 (parc des exposiitons) 35500 Vitré"
    },
    {
        "nom": "CH REDON-salle omnisport",
        "lon": -2.08986,
        "lat": 47.6502,
        "addr": "Rue Lucien Poulard 35600 Redon"
    },
    {
        "nom": "CH NORD DEUX-SEVRES site de Faye-L'Abbesse",
        "lon": -0.385919,
        "lat": 46.8317,
        "addr": "4 Rue du Docteur Binet 79350 Faye-l'Abbesse"
    },
    {
        "nom": "CH MAULEON",
        "lon": -0.7452,
        "lat": 46.9223,
        "addr": "6 Rue du Chemin Vert 79700 Mauléon"
    },
    {
        "nom": "POLYCLINIQUE INKERMANN",
        "lon": -0.452071,
        "lat": 46.3155,
        "addr": "84 Route d'Aiffres 79000 Niort"
    },
    {
        "nom": "GH HAUT VAL DE SEVRE ET DU MELLOIS - SITE DE ST-MAIXENT",
        "lon": -0.220705,
        "lat": 46.4104,
        "addr": "13 Rue du Panier Fleuri 79400 Saint-Maixent-l'École"
    },
    {
        "nom": "LE GRAND FEU",
        "lon": -0.481399,
        "lat": 46.3433,
        "addr": "74 Rue de la Verrerie 79000 Niort"
    },
    {
        "nom": "GUINGAMP - Centre de santé (réservé aux professionnels des secteurs de la santé et du médico-social)",
        "lon": -3.14408,
        "lat": 48.5681,
        "addr": "17 Rue de l'Armor 22200 Pabu"
    },
    {
        "nom": "Ville de Meaux",
        "lon": 2.89992,
        "lat": 48.9435,
        "addr": "71 Avenue Henri Dunant 77100 Meaux"
    },
    {
        "nom": "FOUGERES - Salle de la forairie",
        "lon": -1.18836,
        "lat": 48.3652,
        "addr": "Rue Joseph Fournier 35300 Fougères"
    },
    {
        "nom": "Ville de Provins",
        "lon": 3.30633,
        "lat": 48.5604,
        "addr": "10 Rue du Général Delort 77160 Provins"
    },
    {
        "nom": "Centre de Vaccination - VALLET - Salle Georges Brassens - Petit Palais",
        "lon": -1.2663,
        "lat": 47.1626,
        "addr": "7 Boulevard Stephane Pusterle 44330 Vallet"
    },
    {
        "nom": "Centre Hospitalier  F. Quesnay de MANTES LA JOLIE",
        "lon": 1.69145,
        "lat": 48.9956,
        "addr": "254 Boulevard du Maréchal Juin 78200 Mantes-la-Jolie"
    },
    {
        "nom": "Communauté d'agglomération Saint-Germain Boucle de la Seine",
        "lon": 2.06259,
        "lat": 48.8867,
        "addr": "2 Place Victor Hugo 78112 Saint-Germain-en-Laye"
    },
    {
        "nom": "CH Ploërmel",
        "lon": -2.39222,
        "lat": 47.9347,
        "addr": "7 Rue du Roi Arthur - Bâtiment Le Cloitre 56800 Ploërmel"
    },
    {
        "nom": "Communauté d'agglomération Versailles Grand Parc",
        "lon": 2.14325,
        "lat": 48.8115,
        "addr": "7 bis Rue Pierre Lescot 78000 Versailles"
    },
    {
        "nom": "Communauté de communes du Pays Houdanais",
        "lon": 1.60301,
        "lat": 48.7883,
        "addr": "31 Rue d'Epernon 78550 Houdan"
    },
    {
        "nom": "Communauté de communes Haute Vallée de Chevreuse",
        "lon": 2.07253,
        "lat": 48.7034,
        "addr": "15 Rue Ditte 78470 Saint-Rémy-lès-Chevreuse"
    },
    {
        "nom": "Caisse Primaire d'Assurance Maladie des Deux-Sèvres",
        "lon": -0.492349,
        "lat": 46.2998,
        "addr": "1 Rue de l'Angélique - Bessines 79000 NIORT"
    },
    {
        "nom": "Jardin Albert 1er Théatre de Verdure",
        "lon": 7.26792,
        "lat": 43.6958,
        "addr": "1 promenade des Anglais 06000 Nice"
    },
    {
        "nom": "MSP multisites de Laroque d'Olmes (Pfizer)",
        "lon": 1.87181,
        "lat": 42.9695,
        "addr": "Groupe médical, 2 bis  avenue Pierre Sémard 09600 Laroque-d'Olmes"
    },
    {
        "nom": "Maison médicale de Garde de la Timone",
        "lon": 5.40299,
        "lat": 43.2917,
        "addr": "264 Rue Saint Pierre 13005 Marseille"
    },
    {
        "nom": "Centre de Vaccination - Pôle santé de Mayenne",
        "lon": -0.623945,
        "lat": 48.301,
        "addr": "1  Place de l'Europe 53100 Mayenne"
    },
    {
        "nom": "MSP DE MASSAT (Moderna)",
        "lon": 1.344,
        "lat": 42.8904,
        "addr": "Avenue de l'Europe 09320 Massat"
    },
    {
        "nom": "SOS Médecins LE PONTET",
        "lon": 4.84338,
        "lat": 43.9535,
        "addr": "1 Boulevard Rose des Vents 84130 Le Pontet"
    },
    {
        "nom": "Centre de Vaccination - SAINT NAZAIRE - Centre d'examen de Santé",
        "lon": -2.22307,
        "lat": 47.2744,
        "addr": "16 Rue Charles Coulomb 44600 Saint-Nazaire"
    },
    {
        "nom": "Ville d'Asnières",
        "lon": 2.29031,
        "lat": 48.9129,
        "addr": "27 Rue de la Concorde 92600 Asnières-sur-Seine"
    },
    {
        "nom": "Centre de Vaccination - Château-Gontier - Saint Fiacre",
        "lon": -0.698183,
        "lat": 47.8245,
        "addr": "28 Rue des Martyrs de la Resistance 53200 Château-Gontier-sur-Mayenne"
    },
    {
        "nom": "Maison de la Culture et des Association",
        "lon": 5.50729,
        "lat": 43.695,
        "addr": "168 Rue Résini 84120 Pertuis"
    },
    {
        "nom": "CHU BREST - Site Morvan",
        "lon": -4.48761,
        "lat": 48.3953,
        "addr": "2 Avenue Maréchal Foch 29200 Brest"
    },
    {
        "nom": "CHU BREST - Site de Bohars, unité épidémique",
        "lon": -4.50595,
        "lat": 48.4355,
        "addr": "Route de ploudalmézeau 29820 Bohars"
    },
    {
        "nom": "Centre hospitalier de Bergerac",
        "lon": 0.496978,
        "lat": 44.8506,
        "addr": "9 Av du Professeur Albert Calmette 24100 Bergerac"
    },
    {
        "nom": "CARHAIX - ex service social (CHU Brest)",
        "lon": -3.57978,
        "lat": 48.2738,
        "addr": "Rue du Docteur Menguy 29270 Carhaix-Plouguer"
    },
    {
        "nom": "Clinique générale de Marignane",
        "lon": 5.21518,
        "lat": 43.4091,
        "addr": "Avenue du Général Raoul Salan 13700 Marignane"
    },
    {
        "nom": "NOYAL-PONTIVY - CH Centre Bretagne site Kério",
        "lon": -2.9123,
        "lat": 48.0944,
        "addr": "746 Kerio 56920 Noyal-Pontivy"
    },
    {
        "nom": "Clinique de Vitrolles (Réservé aux professionnels de santé libéraux)",
        "lon": 5.26829,
        "lat": 43.4259,
        "addr": "2 La Tuilière, 2 Rue Bel air 13127 Vitrolles"
    },
    {
        "nom": "Conseil départemental centre de PMI",
        "lon": 5.36535,
        "lat": 43.301,
        "addr": "2 Rue Mazenod 13002 Marseille"
    },
    {
        "nom": "Polyclinique Saint Jean",
        "lon": 7.13797,
        "lat": 43.66,
        "addr": "53 Avenue des Alpes 06800 Cagnes-sur-Mer"
    },
    {
        "nom": "Ville de Boulogne Billancourt",
        "lon": 2.24573,
        "lat": 48.8443,
        "addr": "42 Rue Denfert Rochereau 92100 Boulogne-Billancourt"
    },
    {
        "nom": "Hôpital Clairval - Centre de soins urgents",
        "lon": 5.42534,
        "lat": 43.2461,
        "addr": "317 Boulevard du Redon 13009 Marseille"
    },
    {
        "nom": "Espace Victor Hugo - Montbéliard",
        "lon": 6.78888,
        "lat": 47.5181,
        "addr": "1 Rue Boileau 25200 Montbéliard"
    },
    {
        "nom": "Gymnase Le Phare - Belfort",
        "lon": 6.85001,
        "lat": 47.6382,
        "addr": "1 Rue Paul Koepfler 90000 Belfort"
    },
    {
        "nom": "Centre Hospitalier d'EPERNAY Auban-Moët ",
        "lon": 3.95345,
        "lat": 49.0332,
        "addr": "137 Rue de l'Hôpital Auban Moët 51200 Épernay"
    },
    {
        "nom": "Ville de Chatenay-Malabry",
        "lon": 2.27859,
        "lat": 48.7636,
        "addr": "160 Avenue de la Division Leclerc 92290 Châtenay-Malabry"
    },
    {
        "nom": "Clinique Epernay",
        "lon": 3.9505,
        "lat": 49.0485,
        "addr": "10 Rue de la Côte Legris 51200 Épernay"
    },
    {
        "nom": "CPTS SANTE LUB / LAURIS",
        "lon": 5.31476,
        "lat": 43.7475,
        "addr": "Foyer rural, Rue de la Mairie 84360 Lauris"
    },
    {
        "nom": "CPTS SANTE LUB /MSP Les glycines",
        "lon": 5.54805,
        "lat": 43.7253,
        "addr": "Salle Polyvalente du Pays d'Aigues - Quartier St Christophe 84240 La Tour-d'Aigues"
    },
    {
        "nom": "Centre Vaccination - GHSA - Site Rethel",
        "lon": 4.36376,
        "lat": 49.511,
        "addr": "1 Place Hourtoule 08300 Rethel"
    },
    {
        "nom": "Ville de Clamart",
        "lon": 2.26045,
        "lat": 48.7999,
        "addr": "Place Jules Hunebelle 92140 Clamart"
    },
    {
        "nom": "Centre de vaccination du CH de Saint Palais",
        "lon": -1.02647,
        "lat": 43.3261,
        "addr": "29 Avenue Frederic de Saint Jaymes 64120 Saint-Palais"
    },
    {
        "nom": "Centre de Vaccination de Champagnole - Oppidum",
        "lon": 5.91012,
        "lat": 46.7475,
        "addr": "Rue de l'Egalité 39300 Champagnole"
    },
    {
        "nom": "Centre de Vaccination du CH d'ORTHEZ",
        "lon": -0.771674,
        "lat": 43.4854,
        "addr": "0 rue du Moulin 64300 Orthez"
    },
    {
        "nom": "Ville de Clichy la Garenne",
        "lon": 2.30294,
        "lat": 48.9028,
        "addr": "6 Place du Marché 92110 Clichy"
    },
    {
        "nom": "Ville de Garches - Médiathèque Jacques GAUTIER",
        "lon": 2.18886,
        "lat": 48.8442,
        "addr": "86 Grande Rue 92380 Garches"
    },
    {
        "nom": "Ville d'Issy les Moulineaux",
        "lon": 2.26482,
        "lat": 48.8259,
        "addr": "2 Rue du Bateau Lavoir 92130 Issy-les-Moulineaux"
    },
    {
        "nom": "Ville de la Garenne Colombes",
        "lon": 2.2454,
        "lat": 48.9097,
        "addr": "20-22 Rue de Châteaudun 92250 La Garenne-Colombes"
    },
    {
        "nom": "Ville de Neuilly sur Seine",
        "lon": 2.27555,
        "lat": 48.8831,
        "addr": "70 Avenue du Roule 92200 Neuilly-sur-Seine"
    },
    {
        "nom": "Centre de vaccination de Saint- Claude ",
        "lon": 5.86611,
        "lat": 46.3885,
        "addr": "10 Rue Rosset 39200 Saint-Claude"
    },
    {
        "nom": "Centre de vaccination RESAL",
        "lon": 6.03675,
        "lat": 47.253,
        "addr": "12 Rue Pierre Semard 25000 Besançon"
    },
    {
        "nom": "Centre de vaccination de Pontarlier - Salle les capucins",
        "lon": 6.348,
        "lat": 46.9063,
        "addr": "25 Rue de Salins 25300 Pontarlier"
    },
    {
        "nom": "CH de l'Ouest Guyanais",
        "lon": -54.0203,
        "lat": 5.48779,
        "addr": "1465 Boulevard de la Liberté 97320 Saint-Laurent-du-Maroni"
    },
    {
        "nom": "CH de Cayenne",
        "lon": -52.3207,
        "lat": 4.92453,
        "addr": "Avenue des Flamboyants 97300 Cayenne"
    },
    {
        "nom": "BONNEUIL SUR MARNE",
        "lon": 2.48139,
        "lat": 48.7709,
        "addr": "Espace Louise Voelkel Rue du 8 mai 1945 94380 Bonneuil-sur-Marne"
    },
    {
        "nom": "CENTRE DE VACCINATION AMBULATOIRE DE CHAMPIGNY",
        "lon": 2.51119,
        "lat": 48.8155,
        "addr": "600 RUE HENRI BARBUSSE 94500 Champigny-sur-Marne"
    },
    {
        "nom": "MAISONS ALFORT",
        "lon": 2.43803,
        "lat": 48.8162,
        "addr": "47 Avenue Foch 94700 Maisons-Alfort"
    },
    {
        "nom": "Centre d'ORLY",
        "lon": 2.4069,
        "lat": 48.749,
        "addr": "14 ter Avenue des Martyrs de Chateaubriant 94310 Orly"
    },
    {
        "nom": "CENTRE SAINT-MANDE",
        "lon": 2.42439,
        "lat": 48.8445,
        "addr": "4 Avenue Pasteur 94160 Saint-Mandé"
    },
    {
        "nom": "CENTRE SAINT MAUR DES FOSSES",
        "lon": 2.48682,
        "lat": 48.8017,
        "addr": "10 Avenue Gambetta 94100 Saint-Maur-des-Fossés"
    },
    {
        "nom": "CENTRE SUCY EN BRIE",
        "lon": 2.51777,
        "lat": 48.7707,
        "addr": "Esplanade du 18 juin 94370 Sucy-en-Brie"
    },
    {
        "nom": "Maison medicale de garde de Lezignan Corbières",
        "lon": 2.75864,
        "lat": 43.1941,
        "addr": "15 Boulevard Pasteur 11200 Lézignan-Corbières"
    },
    {
        "nom": "Centre de vaccination anti-covid du GHER",
        "lon": 55.7093,
        "lat": -21.0572,
        "addr": "30 Route nationale 3 - ZAC madeleine 97470 Saint-Benoît"
    },
    {
        "nom": "Maison Medicale de garde de Carcassonne",
        "lon": 2.34487,
        "lat": 43.2078,
        "addr": "1 Avenue des Berges de l'Aude 11000 Carcassonne"
    },
    {
        "nom": "Centre de vaccination COVID 19-Sud : Site de St Pierre",
        "lon": 55.4945,
        "lat": -21.3452,
        "addr": "Avenue François Mitterand 97410 Saint-Pierre"
    },
    {
        "nom": "Centre FOCH",
        "lon": 2.8913,
        "lat": 42.6965,
        "addr": "2 Rue Dr Ludwig Lazarus Zamenhof 66000 Perpignan"
    },
    {
        "nom": "Centre de vaccination COVID 19-Nord : Site Felix Guyon",
        "lon": 55.4439,
        "lat": -20.8915,
        "addr": "Allée des Topazes 97400 Saint-Denis"
    },
    {
        "nom": "Centre de vaccination COVID 19 du CHOR",
        "lon": 55.2999,
        "lat": -20.9771,
        "addr": "5 impasse Plaine Chabrier 97460 Saint-Paul"
    },
    {
        "nom": "Centre de Vaccination - BLAIN - Salle des fêtes",
        "lon": -1.76531,
        "lat": 47.4736,
        "addr": "6b Rue Pierre Morin 44130 Blain"
    },
    {
        "nom": "Centre de Vaccination Caen-Centre",
        "lon": -0.364147,
        "lat": 49.1786,
        "addr": "5 Boulevard Aristide Briand 14000 Caen"
    },
    {
        "nom": "Mairie de Paris Centre",
        "lon": 2.36223,
        "lat": 48.8646,
        "addr": "2 Rue Eugène Spuller 75003 Paris"
    },
    {
        "nom": "SEMUR-EN-AUXOIS Salle saint-Exupéry",
        "lon": 4.34184,
        "lat": 47.4913,
        "addr": "11 Rue Joseph Lambert 21140 Semur-en-Auxois"
    },
    {
        "nom": "centre de vaccination Isigny-sur-Mer - mairie",
        "lon": -1.10285,
        "lat": 49.3201,
        "addr": "rue de thiers 14230 Isigny-sur-Mer"
    },
    {
        "nom": "Polyclinique du parc - Caen - service soins externes",
        "lon": -0.344052,
        "lat": 49.168,
        "addr": "20 AVENUE DU CAPITAINE GUYNEMER 14000 Caen"
    },
    {
        "nom": "CENTRE DE VACCINATION BERTHEAU",
        "lon": 2.36369,
        "lat": 48.8229,
        "addr": "15 Rue Charles Bertheau 75013 Paris"
    },
    {
        "nom": "MAIRIE DU XVIII - CENTRE COVISAN",
        "lon": 2.34483,
        "lat": 48.8919,
        "addr": "1 Place Jules Joffrin 75018 Paris"
    },
    {
        "nom": "Centre de vaccination de Honfleur - site Equemauville",
        "lon": 0.202282,
        "lat": 49.3834,
        "addr": "CHEMIN DE LA PLANE 14600 Équemauville"
    },
    {
        "nom": "Jean Verdier AP-HP",
        "lon": 2.48788,
        "lat": 48.9092,
        "addr": "Avenue du 14 Juillet 93140 Bondy"
    },
    {
        "nom": "CH de Kourou - délocalisé à la médiathèque de Kourou ",
        "lon": -52.6448,
        "lat": 5.16353,
        "addr": "Rue Thomas Guidiglo 97310 Kourou"
    },
    {
        "nom": "MAISON DE QUARTIER VALERY WATTEAU",
        "lon": 2.38869,
        "lat": 48.9816,
        "addr": "1 Route des Refuzniks 95200 Sarcelles"
    },
    {
        "nom": "VENAREY-LES-LAUMES Cour de la mairie",
        "lon": 4.44787,
        "lat": 47.5423,
        "addr": "18 Avenue Jean Jaurès 21150 Venarey-les-Laumes"
    },
    {
        "nom": "MSP MAGNY EN VEXIN",
        "lon": 1.79118,
        "lat": 49.156,
        "addr": "6 Boulevard de la République 95420 Magny-en-Vexin"
    },
    {
        "nom": "centre de vaccination MSP Moissac",
        "lon": 1.09981,
        "lat": 44.1085,
        "addr": "19 Avenue du Chasselas espace confluences 82200 Moissac"
    },
    {
        "nom": "CENTRE DE VACCINATION TAVERNY",
        "lon": 2.21317,
        "lat": 49.0147,
        "addr": "Gymnase Andre Messager, Voie des sports 95150 Taverny"
    },
    {
        "nom": "Centre Hospitalier République - CTPS PAYS DE LUNEL",
        "lon": 4.13216,
        "lat": 43.6756,
        "addr": "141 Place de la Republique 34400 Lunel"
    },
    {
        "nom": "Centre de vaccination de Saint Paul de fenouillet",
        "lon": 2.50509,
        "lat": 42.8113,
        "addr": "Foyer rural place Léo Lagrange 66220 Saint-Paul-de-Fenouillet"
    },
    {
        "nom": "Centre de santé Edmond Rotschild",
        "lon": 2.38167,
        "lat": 48.8834,
        "addr": "3 Rue André Dubois 75019 Paris"
    },
    {
        "nom": "Centre de Vaccination TOURNUS - Hôpital Belnay",
        "lon": 4.89282,
        "lat": 46.5674,
        "addr": "627  avenue Henri et Suzanne Vitrier 71700 Tournus"
    },
    {
        "nom": "PSLA de l'AIGLE",
        "lon": 0.628534,
        "lat": 48.7662,
        "addr": "1 Rue du Moulin 61300 L'Aigle"
    },
    {
        "nom": "PEZENAS Centre Hospitalier (Salle Vayrac)",
        "lon": 3.4195,
        "lat": 43.4601,
        "addr": "Rue Henri Reboul 34120 Pézenas"
    },
    {
        "nom": "Centre de vaccination du CH de Sens",
        "lon": 3.29471,
        "lat": 48.1923,
        "addr": "58 Rue René Binet 89100 Sens"
    },
    {
        "nom": "Centre Hospitalier APT",
        "lon": 5.38271,
        "lat": 43.8767,
        "addr": "225 Avenue de Marseille 84400 Apt"
    },
    {
        "nom": "Chatillon-sur-Seine salle Luc Schreder (gymnase)",
        "lon": 4.57623,
        "lat": 47.8499,
        "addr": "11 Rue Albert Camus 21400 Châtillon-sur-Seine"
    },
    {
        "nom": "MSP - SORGUES - salle René Varoqui ",
        "lon": 4.87966,
        "lat": 43.9974,
        "addr": "Chemin de Lucette 84700 Sorgues"
    },
    {
        "nom": "Centre Vaccination - CHInA site SEDAN",
        "lon": 4.94014,
        "lat": 49.7054,
        "addr": "2 Avenue du Général Margueritte 08200 Sedan"
    },
    {
        "nom": "Carré du Perche",
        "lon": 0.541112,
        "lat": 48.5218,
        "addr": "23 Rue Ferdinand de Boyères 61400 Mortagne-au-Perche"
    },
    {
        "nom": "MSP AX LES THERMES (Pfizer)",
        "lon": 1.84036,
        "lat": 42.719,
        "addr": "rue Abraham Sicre 09110 Ax-les-Thermes"
    },
    {
        "nom": "Sète Centre de vaccination ",
        "lon": 3.69848,
        "lat": 43.4127,
        "addr": "Route de Cayenne (parking du Mas Coulet) 34200 Sète"
    },
    {
        "nom": "DIJON Salle Devosge",
        "lon": 5.03465,
        "lat": 47.3245,
        "addr": "5 Rue Devosge 21000 Dijon"
    },
    {
        "nom": "Centre Vaccination - CHInA site FUMAY",
        "lon": 4.70948,
        "lat": 49.9922,
        "addr": "30 Place du Baty 08170 Fumay"
    },
    {
        "nom": "HALLE AUX TOILES",
        "lon": 0.0892535,
        "lat": 48.432,
        "addr": "Rue Porchaine - cours clémenceau 61000 Alençon"
    },
    {
        "nom": "IS-SUR-TILLE Salle des Capucins",
        "lon": 5.10923,
        "lat": 47.5222,
        "addr": "Rue des Capucins 21120 Is-sur-Tille"
    },
    {
        "nom": "CDV31 Labastide Saint Sernin",
        "lon": 1.47053,
        "lat": 43.7383,
        "addr": "17 Rue Jean Pascal 31620 Labastide-Saint-Sernin"
    },
    {
        "nom": "Mairie du 9e",
        "lon": 2.34053,
        "lat": 48.8726,
        "addr": "6 Rue Drouot 75009 Paris"
    },
    {
        "nom": "CHATILLON-SUR-SEINE Salle Luc Schreder",
        "lon": 4.5765,
        "lat": 47.85,
        "addr": "11 Rue Albert Camus 21400 Châtillon-sur-Seine"
    },
    {
        "nom": "Centre de vaccination de Vesoul",
        "lon": 6.16054,
        "lat": 47.6199,
        "addr": "32 z Place Pierre Renet 70000 Vesoul"
    },
    {
        "nom": "ARGENTAN : ESPACE RENE CASSIN",
        "lon": -0.0105956,
        "lat": 48.747,
        "addr": "3 Impasse du General Giraud 61200 Argentan"
    },
    {
        "nom": "CV LE FOSSAT (Moderna)",
        "lon": 1.40577,
        "lat": 43.1751,
        "addr": "centre multimédia avenue de Versailles 09130 Le Fossat"
    },
    {
        "nom": "BEAUNE Gymnase des Blanches Fleurs",
        "lon": 4.83803,
        "lat": 47.0355,
        "addr": "67 Rue des Blanches Fleurs 21200 Beaune"
    },
    {
        "nom": "Centre de vaccination de Romilly - sur- Seine, salle des fêtes",
        "lon": 3.72519,
        "lat": 48.5126,
        "addr": "70 Avenue Pierre Brossolette 10100 Romilly-sur-Seine"
    },
    {
        "nom": "CDV31 Montréjeau",
        "lon": 0.561836,
        "lat": 43.0843,
        "addr": "14 bis Avenue de Mazères 31210 Montréjeau"
    },
    {
        "nom": "Maison des associations de la ville de Bayonne",
        "lon": -1.47164,
        "lat": 43.4841,
        "addr": "11 Allée de Glain 64100 Bayonne"
    },
    {
        "nom": "CLAMECY -SALLE POLYVALENTE",
        "lon": 3.51723,
        "lat": 47.4569,
        "addr": "BOULEVARD MISSET 58500 Clamecy"
    },
    {
        "nom": "MSP PAMIERS (Pfizer)",
        "lon": 1.62321,
        "lat": 43.1032,
        "addr": "12 Rue Bernard Saisset 09100 Pamiers"
    },
    {
        "nom": "POUILLY-EN-AUXOIS espace Jean Claude Patriarche",
        "lon": 4.55727,
        "lat": 47.2619,
        "addr": "Ruelle du Gué 21320 Pouilly-en-Auxois"
    },
    {
        "nom": "HIHL - SITE DE BELLAC",
        "lon": 1.06179,
        "lat": 46.1241,
        "addr": "4 Avenue Charles de Gaulle 87300 Bellac"
    },
    {
        "nom": "Centre de Vaccination de Luxeuil-les-Bains",
        "lon": 6.38085,
        "lat": 47.8115,
        "addr": "3 Place du 8 Mai 1945 70300 Luxeuil-les-Bains"
    },
    {
        "nom": "Centre de Vaccination de Lure",
        "lon": 6.48935,
        "lat": 47.6847,
        "addr": "22 Rue du Docteur Deubel 70200 Lure"
    },
    {
        "nom": "CDV31 Labarthe sur Lèze",
        "lon": 1.39774,
        "lat": 43.4656,
        "addr": "Route du Plantaurel 31860 Labarthe-sur-Lèze"
    },
    {
        "nom": "Centre vaccination MACON - Halle sportive du centre omnisport",
        "lon": 4.84152,
        "lat": 46.3163,
        "addr": "389 Av Mal de Lattre de Tassigny 71000 Mâcon"
    },
    {
        "nom": "Cosne Cours Sur Loire- salle Polyvalente",
        "lon": 2.92308,
        "lat": 47.4094,
        "addr": "6 Impasse de la Madeleine 58200 Cosne-Cours-sur-Loire"
    },
    {
        "nom": "HOPITAL INTERCOMMUNAL MONTS ET BARRAGES - ST LEONARD DE NOBLAT",
        "lon": 1.48482,
        "lat": 45.8416,
        "addr": "Chemin du Panaud 87400 Saint-Léonard-de-Noblat"
    },
    {
        "nom": "Centre de vaccination Halle aux grains",
        "lon": 3.29504,
        "lat": 47.7353,
        "addr": "7  rue Paul Defrance 89130 Toucy"
    },
    {
        "nom": "Centre de vaccination - Clinique St Louis de Ganges",
        "lon": 3.70327,
        "lat": 43.9325,
        "addr": "2 Place Joseph Boudouresques 34190 Ganges"
    },
    {
        "nom": "Centre de Vaccination de Gray",
        "lon": 5.59383,
        "lat": 47.4495,
        "addr": "7 Rue Sauzay 70100 Gray"
    },
    {
        "nom": "Site du CH ST Hilaire du Harcouët",
        "lon": -1.09622,
        "lat": 48.5687,
        "addr": "Route de Saint-James 50600 Saint-Hilaire-du-Harcouët"
    },
    {
        "nom": "Centre vaccination LOUHANS/BRANGES - Salle du Marais",
        "lon": 5.16922,
        "lat": 46.6459,
        "addr": "155 Route du Bourg 71500 Branges"
    },
    {
        "nom": "MSP des Halles ",
        "lon": 0.987316,
        "lat": 43.8803,
        "addr": "15 Boulevard de Verdun 82500 Beaumont-de-Lomagne"
    },
    {
        "nom": "CDV31 Boulogne sur Gesse",
        "lon": 0.644903,
        "lat": 43.2883,
        "addr": "1 Rue du Docteur Jean Montastruc 31350 Boulogne-sur-Gesse"
    },
    {
        "nom": "Centre de Vaccination d'Héricourt",
        "lon": 6.76232,
        "lat": 47.5683,
        "addr": "5 Rue Martin Niemoller 70400 Héricourt"
    },
    {
        "nom": "CCI ARLES/CPTS PAYS D'ARLES",
        "lon": 4.61833,
        "lat": 43.6714,
        "addr": "Avenue de la 1ère Division France Libre 13200 Arles"
    },
    {
        "nom": "Decize - Salle Theodore GERARD",
        "lon": 3.45817,
        "lat": 46.8307,
        "addr": "5 bis Lieu Dit la Levee de Loire 58300 Decize"
    },
    {
        "nom": "Auberge Municipale ",
        "lon": 2.3567,
        "lat": 48.9444,
        "addr": "2 Avenue du Colonel Fabien 93200 Saint-Denis"
    },
    {
        "nom": "Site de Coutances",
        "lon": -1.43642,
        "lat": 49.0538,
        "addr": "17 Rue des Seringas 50200 Coutances"
    },
    {
        "nom": "Centre vaccination CHALON SUR SAONE - Salle Sembat",
        "lon": 4.86013,
        "lat": 46.7868,
        "addr": "1 Place Mathias 71100 Chalon-sur-Saône"
    },
    {
        "nom": "Centre de vaccination CH de Tonnerre",
        "lon": 3.98033,
        "lat": 47.8542,
        "addr": "chemin des Jumeriaux 89700 Tonnerre"
    },
    {
        "nom": "CASTELNAU LE LEZ Clinique du Parc",
        "lon": 3.89091,
        "lat": 43.6349,
        "addr": "50 Rue Emile Combes 34170 Castelnau-le-Lez"
    },
    {
        "nom": "LORMES",
        "lon": 3.81534,
        "lat": 47.2908,
        "addr": "8 Rue du Panorama 58140 Lormes"
    },
    {
        "nom": "Mairie du 8e",
        "lon": 2.31754,
        "lat": 48.8777,
        "addr": "3 Rue de Lisbonne 75008 Paris"
    },
    {
        "nom": "CDV31 Castanet-Tolosan",
        "lon": 1.51232,
        "lat": 43.5153,
        "addr": "26 Boulevard des Campanhols 31320 Castanet-Tolosan"
    },
    {
        "nom": "Salles des fêtes - place centrale",
        "lon": -1.61351,
        "lat": 49.6213,
        "addr": "50110 Cherbourg-en-Cotentin"
    },
    {
        "nom": "Centre de vaccination - CH de Tourcoing",
        "lon": 3.18076,
        "lat": 50.7456,
        "addr": "155 Rond Point P.coty-hopital Dron 59200 Tourcoing"
    },
    {
        "nom": "CPTS Aix Ste Victoire / Gymnase du Val de l'Arc",
        "lon": 5.46375,
        "lat": 43.5131,
        "addr": "35 Avenue des Infirmeries 13100 Aix-en-Provence"
    },
    {
        "nom": "CDV31 Salies du Salat",
        "lon": 0.955674,
        "lat": 43.101,
        "addr": "4 a Boulevard du Sel 31260 Salies-du-Salat"
    },
    {
        "nom": "Centre de vaccination de Saint-Ouen - Salle des fêtes Barbara ",
        "lon": 2.33657,
        "lat": 48.9114,
        "addr": "5 Rue des écoles, Saint-Ouen-sur-Seine 93400 Saint-Ouen-sur-Seine"
    },
    {
        "nom": "Halle des expositions d'Evreux",
        "lon": 1.1357,
        "lat": 49.0234,
        "addr": "27 Avenue du Maréchal Foch 27000 Évreux"
    },
    {
        "nom": "Louviers : maison des sports et associations",
        "lon": 1.15292,
        "lat": 49.208,
        "addr": "10 Avenue du Maréchal Leclerc 27400 Louviers"
    },
    {
        "nom": "Centre municipal de santé - Salvaldor Allende ",
        "lon": 2.39117,
        "lat": 48.9254,
        "addr": "2 Mail de l'égalité  93120 La Courneuve"
    },
    {
        "nom": "Barcelonnette - Salle du marché couvert",
        "lon": 6.65172,
        "lat": 44.386,
        "addr": "Place Aimé Gassier 04400 Barcelonnette"
    },
    {
        "nom": "Mairie du Ve",
        "lon": 2.34486,
        "lat": 48.846,
        "addr": "19 bis Place du Panthéon 75005 Paris"
    },
    {
        "nom": "Luzy - salle des Fêtes",
        "lon": 3.96998,
        "lat": 46.7898,
        "addr": "13 Rue des Remparts 58170 Luzy"
    },
    {
        "nom": "Les Andelys : salle des fêtes",
        "lon": 1.41987,
        "lat": 49.2468,
        "addr": "28 Avenue du Général de Gaulle 27700 Les Andelys"
    },
    {
        "nom": "Maison des associations Paris 7e",
        "lon": 2.30745,
        "lat": 48.8594,
        "addr": "4 Rue Amélie 75007 Paris"
    },
    {
        "nom": "Gisors : salle des fêtes",
        "lon": 1.7667,
        "lat": 49.278,
        "addr": "78 Rue du Faubourg de Neaufles 27140 Gisors"
    },
    {
        "nom": "CDV31 Cornebarrieu",
        "lon": 1.32417,
        "lat": 43.6526,
        "addr": "3 Rue du Boiret 31700 Cornebarrieu"
    },
    {
        "nom": "CDV31 Revel",
        "lon": 2.00571,
        "lat": 43.4623,
        "addr": "2 Rue du Padouvenc de Castres 31250 Revel"
    },
    {
        "nom": "Centre Municipal de Santé - Espace Cocteau",
        "lon": 2.40584,
        "lat": 48.8923,
        "addr": "10-12 rue Cornet, 93500 PANTIN 93500 Pantin"
    },
    {
        "nom": "Centre vaccination LE CREUSOT - Salle de l'Alto",
        "lon": 4.43032,
        "lat": 46.8063,
        "addr": "2 Avenue François Mitterrand 71200 Le Creusot"
    },
    {
        "nom": "Salle des fêtes - Castelanne",
        "lon": 6.51076,
        "lat": 43.8461,
        "addr": "Avenue Frederic Mistral 04120 Castellane"
    },
    {
        "nom": "Salle polyvalente - Grandvillars",
        "lon": 6.97526,
        "lat": 47.5391,
        "addr": "49 Rue des Grands Champs 90600 Grandvillars"
    },
    {
        "nom": "Centre de vaccinations internationales Air France",
        "lon": 2.3675,
        "lat": 48.8692,
        "addr": "38 Quai de Jemmapes 75010 Paris"
    },
    {
        "nom": "centre de vaccination du CH d'Avallon",
        "lon": 3.90475,
        "lat": 47.4904,
        "addr": "1 Rue de Hopital 89200 Avallon"
    },
    {
        "nom": "Centre de vaccination - Centre municipal de santé",
        "lon": 2.54582,
        "lat": 48.9207,
        "addr": "37 Rue Saint-Claude 93190 Livry-Gargan"
    },
    {
        "nom": "CDV31 Toulouse Limayrac",
        "lon": 1.48016,
        "lat": 43.5896,
        "addr": "22 Rue Xavier Darasse 31500 Toulouse"
    },
    {
        "nom": "CDV31 Colomiers",
        "lon": 1.34685,
        "lat": 43.615,
        "addr": "12 Avenue Yves Brunaud 31770 Colomiers"
    },
    {
        "nom": "Ancienne ComCom Vosges du Sud - Giromagny",
        "lon": 6.83087,
        "lat": 47.7321,
        "addr": "Allée de la grande prairie 90200 Giromagny"
    },
    {
        "nom": "Centre de vaccination AUTUN - Salle l'Hexagone",
        "lon": 4.30391,
        "lat": 46.9518,
        "addr": "1 rue Latouche 71400 Autun"
    },
    {
        "nom": "BEZIERS Centre Zinga Zanga (grande salle de spectacle)",
        "lon": 3.18991,
        "lat": 43.331,
        "addr": "Traverse de Colombiers 34500 Béziers"
    },
    {
        "nom": "Annexe du collège international ",
        "lon": 2.53874,
        "lat": 48.8423,
        "addr": "1 Allée Christophe Colomb 93160 Noisy-le-Grand"
    },
    {
        "nom": "Centre de vaccination- Les Champs Blancs",
        "lon": 3.4256,
        "lat": 47.9762,
        "addr": "10 Avenue d'Amélia 89300 Joigny"
    },
    {
        "nom": "Salle Olympe de Gouges",
        "lon": 2.38489,
        "lat": 48.8604,
        "addr": "15 Rue Merlin 75011 Paris"
    },
    {
        "nom": "Centre culturel - La Passerelle à Fleury-les-Aubrais",
        "lon": 1.92074,
        "lat": 47.9249,
        "addr": "57 Boulevard de Lamballe 45400 Fleury-les-Aubrais"
    },
    {
        "nom": "Salle des fêtes Marcel Pagnol",
        "lon": 2.53299,
        "lat": 48.8674,
        "addr": "3  rue de Berry 93330 Neuilly-sur-Marne 93330 Neuilly-sur-Marne"
    },
    {
        "nom": "Salle Fernand Pellicer - Orléans La Source",
        "lon": 1.93344,
        "lat": 47.8343,
        "addr": "Rue Edouard Branly 45100 Orléans"
    },
    {
        "nom": "CD Lamartine",
        "lon": 3.15605,
        "lat": 47.0057,
        "addr": "3 bis Rue Lamartine 58000 Nevers"
    },
    {
        "nom": "Centre de vaccination MONTCEAU LES MINES - Salle l'Embarcadère",
        "lon": 4.36099,
        "lat": 46.6768,
        "addr": "36 Quai Jules Chagot 71300 Montceau-les-Mines"
    },
    {
        "nom": "Mairie du 13e",
        "lon": 2.35566,
        "lat": 48.8323,
        "addr": "1 Place d'Italie 75013 Paris"
    },
    {
        "nom": "Centre de vaccination - salle municipale l'Embarcadère",
        "lon": 2.38095,
        "lat": 48.911,
        "addr": "5 Rue Edouard Poisson  93300 Aubervilliers"
    },
    {
        "nom": "DIJON Stade Gaston Gérard (au dessus de la boutique DFCO )",
        "lon": 5.06793,
        "lat": 47.3261,
        "addr": "1 Rue du Stade 21000 Dijon"
    },
    {
        "nom": "CDV31 Balma",
        "lon": 1.49273,
        "lat": 43.6152,
        "addr": "17 Avenue des Arènes 31130 Balma"
    },
    {
        "nom": "Mairie du XIVe",
        "lon": 2.32611,
        "lat": 48.8328,
        "addr": "12 Rue Pierre Castagnou 75014 Paris"
    },
    {
        "nom": "Salle polyvalente Cuiry de Gien",
        "lon": 2.62321,
        "lat": 47.7084,
        "addr": "32 Rue Georges Brassens 45500 Gien"
    },
    {
        "nom": "Centre de vaccination de PARAY LE MONIAL - Salle du Centre associatif Parodien",
        "lon": 4.11297,
        "lat": 46.4508,
        "addr": "9 Rue Pierre Lathuilière 71600 Paray-le-Monial"
    },
    {
        "nom": "Collège Courbet ",
        "lon": 2.36085,
        "lat": 48.9503,
        "addr": "17 Rue François Mitterrand 93380 Pierrefitte-sur-Seine"
    },
    {
        "nom": "CDV31 Rieumes",
        "lon": 1.11542,
        "lat": 43.4085,
        "addr": "380 Rue du Pigeonnier 31370 Rieumes"
    },
    {
        "nom": "Centre médical de l'Institut Pasteur",
        "lon": 2.30985,
        "lat": 48.8419,
        "addr": "211 Rue de Vaugirard 75015 Paris"
    },
    {
        "nom": "MONTPELLIER Centre municipal le Polygone",
        "lon": 3.8864,
        "lat": 43.6082,
        "addr": "2  Place Paul Bec 34000 Montpellier"
    },
    {
        "nom": "CDV31 Saint Orens De Gameville",
        "lon": 1.5403,
        "lat": 43.551,
        "addr": "42 Avenue Augustin Labouilhe 31650 Saint-Orens-de-Gameville"
    },
    {
        "nom": "Mairie du 15e",
        "lon": 2.30044,
        "lat": 48.8414,
        "addr": "31 Rue Peclet 75015 Paris"
    },
    {
        "nom": "Centre de vaccination DIGOIN - Grande salle des fêtes",
        "lon": 3.98539,
        "lat": 46.4824,
        "addr": "place de la république 71160 Digoin"
    },
    {
        "nom": "Centre de gérontologie Henry Dunant / Croix Rouge",
        "lon": 2.25827,
        "lat": 48.8401,
        "addr": "95  Rue Michel-ange 75016 Paris"
    },
    {
        "nom": "CENTRE DE VACCINATION PARC DES EXPOSITIONS DE TARBES",
        "lon": 0.0853647,
        "lat": 43.2183,
        "addr": "Boulevard du Président Kennedy 65000 Tarbes"
    },
    {
        "nom": "SOS Médecin Paris 17e",
        "lon": 2.32667,
        "lat": 48.8978,
        "addr": "2 Rue Francis Garnier 75017 Paris"
    },
    {
        "nom": "NEVERS Les Eduens",
        "lon": 3.15229,
        "lat": 46.9839,
        "addr": "13 quai des mariniers 58000 Nevers"
    },
    {
        "nom": "Centre Municipal de Santé de L'Hay Les Roses",
        "lon": 2.35,
        "lat": 48.7745,
        "addr": "2 Rue des Accacias 94240 L'Haÿ-les-Roses"
    },
    {
        "nom": "Centre hospitalier Carnelle Portes de l'Oise ",
        "lon": 2.29102,
        "lat": 49.1447,
        "addr": "25 Rue Edmond Turcq 95260 Beaumont-sur-Oise"
    },
    {
        "nom": "Fourchambault - salle polyvalente",
        "lon": 3.08303,
        "lat": 47.0206,
        "addr": "1 Rue du 4 Septembre 58600 Fourchambault"
    },
    {
        "nom": "Le 104",
        "lon": 2.37162,
        "lat": 48.8899,
        "addr": "104 rue d'Aubervilliers 75019 Paris"
    },
    {
        "nom": "Mairie du XXe",
        "lon": 2.39905,
        "lat": 48.865,
        "addr": "6 Place Gambetta 75020 Paris"
    },
    {
        "nom": "SAINT PIERRE LE MOUTIER - annexe de la mairie",
        "lon": 3.11709,
        "lat": 46.7898,
        "addr": "33 Place de l'Église 58240 Saint-Pierre-le-Moûtier"
    },
    {
        "nom": "Centre de vaccination GIVRY -  Maison médicale",
        "lon": 4.74829,
        "lat": 46.7792,
        "addr": "13 Rue de la Gare 71640 Givry"
    },
    {
        "nom": "La Charité Sur Loire - Salle des Fêtes",
        "lon": 3.02061,
        "lat": 47.1766,
        "addr": "40 Rue Sainte Anne 58400 La Charité-sur-Loire"
    },
    {
        "nom": "Centre de vaccination du Centre Hospitalier de Brioude",
        "lon": 3.38231,
        "lat": 45.2969,
        "addr": "36 Rue Michel de l'Hospital 43100 Brioude"
    },
    {
        "nom": "Centre de vaccination du Centre hospitalier d'Yssingeaux",
        "lon": 4.12994,
        "lat": 45.1503,
        "addr": "26 Avenue du 8 Mai 1945 - Salle de la Coupe du Monde 43200 Yssingeaux"
    },
    {
        "nom": "Salle Carnot à Montargis",
        "lon": 2.7388,
        "lat": 48.0033,
        "addr": "16-18 Rue Carnot 45200 Montargis"
    },
    {
        "nom": "CDV31 Saint Lys",
        "lon": 1.18776,
        "lat": 43.5223,
        "addr": "8 Rue Alain Colas 31470 Saint-Lys"
    },
    {
        "nom": "Minotaure salle culturelle de Vendôme",
        "lon": 1.07177,
        "lat": 47.7919,
        "addr": "8 Rue César de Vendôme 41100 Vendôme"
    },
    {
        "nom": "Centre Exposition Fabrique Normant - salle culturelle",
        "lon": 1.75039,
        "lat": 47.3558,
        "addr": "2 Avenue François Mitterrand 41200 Romorantin-Lanthenay"
    },
    {
        "nom": "CDV31 Clinique Monié Villefranche de Lauragais",
        "lon": 1.73483,
        "lat": 43.4104,
        "addr": "1245 Route de Revel 31290 Villefranche-de-Lauragais"
    },
    {
        "nom": "Centre de vaccination d'Aurillac - Centre médico-chirurgical de Tronquières - ELSAN",
        "lon": 2.4265,
        "lat": 44.9096,
        "addr": "83 Avenue Charles de Gaulle 15000 Aurillac"
    },
    {
        "nom": "Château Chinon - centre hospitalier",
        "lon": 3.93601,
        "lat": 47.0605,
        "addr": "40 Rue Jean Marie Thevenin 58120 Château-Chinon (Ville)"
    },
    {
        "nom": "Centre de vaccination du CH de Mauriac",
        "lon": 2.33349,
        "lat": 45.2162,
        "addr": "2 Rue du 8 Mai 1945 15200 Mauriac"
    },
    {
        "nom": "Centre de vaccination de St Etienne de St Geoirs - Grenoble Air Parc",
        "lon": 5.33652,
        "lat": 45.3557,
        "addr": "1 Avenue Roland Garros 38590 Saint-Étienne-de-Saint-Geoirs"
    },
    {
        "nom": "Centre de vaccination à la Maison de santé pluridisciplinaire (MSP) Montalieu",
        "lon": 5.40493,
        "lat": 45.8144,
        "addr": "12 Rue du Besset 38390 Montalieu-Vercieu"
    },
    {
        "nom": "Centre de vaccination du CH de Saint Flour",
        "lon": 3.08591,
        "lat": 45.0332,
        "addr": "2 Avenue du Docteur Mallet 15100 Saint-Flour"
    },
    {
        "nom": "ST JEAN DE VEDAS Clinique St Jean",
        "lon": 3.83534,
        "lat": 43.5703,
        "addr": "1 Place de l'Europe 34430 Saint-Jean-de-Védas"
    },
    {
        "nom": "Salle des fêtes de Suresnes",
        "lon": 2.22525,
        "lat": 48.8711,
        "addr": "2 Rue Carnot 92150 Suresnes"
    },
    {
        "nom": "Centre de vaccination  Communauté professionnelle territoriale de santé (CPTS) Vercors",
        "lon": 5.55187,
        "lat": 45.0721,
        "addr": "Place Mûre Ravaud 38250 Villard-de-Lans"
    },
    {
        "nom": "Communauté professionnelle territoriale de santé (CPTS) Sud est Grenoblois - Salle des fêtes",
        "lon": 5.75446,
        "lat": 45.1495,
        "addr": "5 Rue du Chateau 38320 Eybens"
    },
    {
        "nom": "Gymnase Nelson Mandela ",
        "lon": 2.45531,
        "lat": 49.0296,
        "addr": "21 Avenue de Montmorency 95190 Goussainville"
    },
    {
        "nom": "CDV31 CHU Toulouse Purpan",
        "lon": 1.3978,
        "lat": 43.608,
        "addr": "1 Place du Docteur Joseph Baylac 31300 Toulouse"
    },
    {
        "nom": "Maison des Associations et du  Bénévolat (MAB)",
        "lon": 5.78777,
        "lat": 44.9003,
        "addr": "56 Boulevard Docteur Ricard 38350 La Mure"
    },
    {
        "nom": "Centre de vaccination COVID - AIX LES BAINS",
        "lon": 5.90731,
        "lat": 45.6968,
        "addr": "49 Avenue du Grand Port - Centre hospitalier 1er étage du bâtiment principal 73100 Aix-les-Bains"
    },
    {
        "nom": "CDV31 CHU Toulouse Rangueil",
        "lon": 1.45408,
        "lat": 43.5586,
        "addr": "1 Avenue du Professeur Jean Poulhes 31400 Toulouse"
    },
    {
        "nom": "CDV31 - CHU Toulouse Larrey",
        "lon": 1.45683,
        "lat": 43.5532,
        "addr": "24 Chemin de Pouvourville 31400 Toulouse"
    },
    {
        "nom": "CDV31 CHU Toulouse La Grave",
        "lon": 1.43413,
        "lat": 43.6008,
        "addr": "Place Lange 31300 Toulouse"
    },
    {
        "nom": "Centre de vaccination de Grenoble - Centre départemental de santé",
        "lon": 5.73061,
        "lat": 45.1817,
        "addr": "23 Avenue Albert 1er de Belgique 38000 Grenoble"
    },
    {
        "nom": "Centre de vaccinations Nationales et Internationales de la ville de Grenoble",
        "lon": 5.73657,
        "lat": 45.1901,
        "addr": "33 Rue Joseph Chanrion 38000 Grenoble"
    },
    {
        "nom": "CDV31 Toulouse Bourbaki",
        "lon": 1.43153,
        "lat": 43.6236,
        "addr": "place Stéphane Hessel 31200 Toulouse"
    },
    {
        "nom": "Centre de vaccination de Bourgoin-Jallieu - Espace Senior",
        "lon": 5.27743,
        "lat": 45.5898,
        "addr": "10 Place Albert Schweitzer 38300 Bourgoin-Jallieu"
    },
    {
        "nom": "Centre de vaccination de Vienne - Manège",
        "lon": 4.86576,
        "lat": 45.5132,
        "addr": "30 Avenue Général Leclerc 38200 Vienne"
    },
    {
        "nom": "Centre de vaccination - CH Saint Céré",
        "lon": 1.88751,
        "lat": 44.8623,
        "addr": "100 Rue du Pré d'Aubié 46400 Saint-Céré"
    },
    {
        "nom": "Centre de Vaccination Aubigny - Salle polyvalente - Les terrasses de la Nère",
        "lon": 2.44811,
        "lat": 47.4844,
        "addr": "Route de la Chapelotte 18700 Aubigny-sur-Nère"
    },
    {
        "nom": "Centre de vaccination - réservé professionnels de santé et assimilés - CH Nogent-le-Rotrou",
        "lon": 0.838781,
        "lat": 48.3167,
        "addr": "Avenue de l'Europe 28400 Nogent-le-Rotrou"
    },
    {
        "nom": "Centre de vaccination \"grand public\" CHARTREXPO – Chartres",
        "lon": 1.51648,
        "lat": 48.4516,
        "addr": "Avenue Jean Mermoz 28000 Chartres"
    },
    {
        "nom": "Centre de vaccination \"grand public\" - Salle Léo Lagrange",
        "lon": 1.33215,
        "lat": 48.0665,
        "addr": "Impasse des Cordeliers 28200 Châteaudun"
    },
    {
        "nom": "Centre de vaccination \"grand public\" Salle Pierre Mendès France – Nogent-le-Rotrou",
        "lon": 0.820384,
        "lat": 48.3174,
        "addr": "5 Avenue Camille Gaté 28400 Nogent-le-Rotrou"
    },
    {
        "nom": "Centre de vaccination - Palais des sports de Gerland /Hospices Civils de Lyon",
        "lon": 4.83026,
        "lat": 45.724,
        "addr": "350 Avenue Jean Jaurès 69007 Lyon"
    },
    {
        "nom": "Centre de vaccination grand public - Parc des expositions ",
        "lon": 1.35722,
        "lat": 48.7324,
        "addr": "1 Impasse de la Commune 28100 Dreux"
    },
    {
        "nom": "Centre de vaccination \"grand public\" - La Loupe",
        "lon": 1.01476,
        "lat": 48.4709,
        "addr": "1 Place Vauban 28240 La Loupe"
    },
    {
        "nom": "Centre de vaccination de l'Hôpital Nord-Ouest-Villefranche - Hôpital de Tarare",
        "lon": 4.43913,
        "lat": 45.889,
        "addr": "6 Boulevard Garibaldi 69170 Tarare"
    },
    {
        "nom": "Centre de vaccination de Lamastre  - Centre socio-culturel",
        "lon": 4.57776,
        "lat": 44.9847,
        "addr": "1 Place Victor Hugo 07270 Lamastre"
    },
    {
        "nom": "Clinique Pasteur de Guilherand-Granges",
        "lon": 4.88257,
        "lat": 44.9341,
        "addr": "294 Boulevard Charles de Gaulle 07500 Guilherand-Granges"
    },
    {
        "nom": "Centre de vaccination Les Halles de Tours",
        "lon": 0.680888,
        "lat": 47.3914,
        "addr": "1 Place Gaston Paillhou - 1er étage 37000 Tours"
    },
    {
        "nom": "Centre de vaccination de l'Hôpital de Thizy",
        "lon": 4.3126,
        "lat": 46.0294,
        "addr": "6 Rue de l'Hospice 69240 Thizy-les-Bourgs"
    },
    {
        "nom": "Centre de vaccination COVID - Bourg Saint Maurice",
        "lon": 6.76476,
        "lat": 45.6166,
        "addr": "139 Rue du Nantet - Centre Hospitalier 73700 Bourg-Saint-Maurice"
    },
    {
        "nom": "Maison des associations - Clos neuf",
        "lon": 0.657094,
        "lat": 47.3545,
        "addr": "2 Rue du Clos Neuf 37300 Joué-lès-Tours"
    },
    {
        "nom": "centre de vaccination de Caussade",
        "lon": 1.53375,
        "lat": 44.1621,
        "addr": "12 rue de la Solidarité 82300 Caussade"
    },
    {
        "nom": "Centre de vaccination COVID - SAINT JEAN DE MAURIENNE",
        "lon": 6.34173,
        "lat": 45.2776,
        "addr": "169 R des Ecoles 73300 Saint-Jean-de-Maurienne"
    },
    {
        "nom": "Centre de vaccination - Salle Descartes - Saint-Benoît-la-Forêt ",
        "lon": 0.319018,
        "lat": 47.1984,
        "addr": "route de Tours 37500 Saint-Benoît-la-Forêt"
    },
    {
        "nom": "Centre de vaccination COVID d'Albertville - Maison médicale d'Albertville",
        "lon": 6.3697,
        "lat": 45.6677,
        "addr": "253  Rue Pierre de Coubertin - Maison médicale 73200 Albertville"
    },
    {
        "nom": "Centre de vaccination de L'Arbresle - Salle Claude Terrasse",
        "lon": 4.61016,
        "lat": 45.8372,
        "addr": "201 Rue de Paris 69210 L'Arbresle"
    },
    {
        "nom": "Centre médical du SDIS - Neuillé-Pont-Pierre",
        "lon": 0.539607,
        "lat": 47.5466,
        "addr": "Les Nongrenières - Route Départementale 766 37360 Neuillé-Pont-Pierre"
    },
    {
        "nom": "Centre de vaccination - Groupement Hospitalier Portes de Provence - Institut de formation en soins infirmiers (IFSI)",
        "lon": 4.75184,
        "lat": 44.5644,
        "addr": "3 rue du général Chabrillan - Institut de soins infirmiers 26200 Montélimar"
    },
    {
        "nom": "Maison des associations - Loches",
        "lon": 1.00188,
        "lat": 47.1225,
        "addr": "1 Avenue Aristide Briand 37600 Loches"
    },
    {
        "nom": "Centre de vaccination COVID - MOUTIERS",
        "lon": 6.53418,
        "lat": 45.4836,
        "addr": "43 Rue Ecole des Mines - Centre Hospitalier Albertville Moutiers 73600 Moûtiers"
    },
    {
        "nom": "Centre de vaccination international de Villeurbanne",
        "lon": 4.90634,
        "lat": 45.7607,
        "addr": "173 Rue Léon Blum 69100 Villeurbanne"
    },
    {
        "nom": "Salle Polyvalente - Amboise",
        "lon": 0.979625,
        "lat": 47.4112,
        "addr": "Avenue des Martyrs de la Résistance 37400 Amboise"
    },
    {
        "nom": "Centre de vaccination - LAVAL - Salle polyvalente ",
        "lon": -0.772294,
        "lat": 48.0654,
        "addr": "30 Place de Herce 53000 Laval"
    },
    {
        "nom": "Espace Jorge Semprun - Blois",
        "lon": 1.30398,
        "lat": 47.5935,
        "addr": "25 Rue Jean-Baptiste Charcot 41000 Blois"
    },
    {
        "nom": "Centre de vaccination de l'Institut Pasteur de Guadeloupe",
        "lon": -61.5263,
        "lat": 16.2362,
        "addr": "13 Morne Bernus 97139 Les Abymes"
    },
    {
        "nom": "CDV31 Villemur sur Tarn",
        "lon": 1.4824,
        "lat": 43.8594,
        "addr": "28 Chemin de la Garrigue 31340 Villemur-sur-Tarn"
    },
    {
        "nom": "Centre de vaccination de l'Hôpital de Neuville sur Saône",
        "lon": 4.84829,
        "lat": 45.8677,
        "addr": "53 53 Chemin de Parenty 69250 Neuville-sur-Saône"
    },
    {
        "nom": "Centre de Vaccination - REZE - Confluent",
        "lon": -1.54743,
        "lat": 47.1951,
        "addr": "2 Rue Eric Tabarly 44200 Nantes"
    },
    {
        "nom": "CDV31 Cazères",
        "lon": 1.0844,
        "lat": 43.2035,
        "addr": "7 Rue des Capucins 31220 Cazères"
    },
    {
        "nom": "Centre de vaccination de Romans sur Isère - Salle des cordeliers",
        "lon": 5.05267,
        "lat": 45.0443,
        "addr": "47 Place Jules Nadi - Salle des cordeliers 26100 Romans-sur-Isère"
    },
    {
        "nom": "Centre de vaccination - MAMERS - CHICAM",
        "lon": 0.358813,
        "lat": 48.3608,
        "addr": "Route de Mesle 72600 Mamers"
    },
    {
        "nom": "Centre de vaccination du centre de santé des Cévennes",
        "lon": 4.66985,
        "lat": 45.2612,
        "addr": "122 Avenue Ferdinand Janvier 07100 Annonay"
    },
    {
        "nom": "Ville de Salon de Provence - Salle Polyvalente",
        "lon": 5.09274,
        "lat": 43.6382,
        "addr": "17 boulevard Aristide Briand 13300 Salon-de-Provence"
    },
    {
        "nom": "Centre de vaccination du CH de Capesterre Belle Eau",
        "lon": -61.5991,
        "lat": 16.0041,
        "addr": "1464 Allee Saint Sauveur 97130 Capesterre-Belle-Eau"
    },
    {
        "nom": "Centre de vaccination de l'Hôpital de Belleville",
        "lon": 4.74642,
        "lat": 46.1097,
        "addr": "Rue Paulin Bussières 69220 Belleville-en-Beaujolais"
    },
    {
        "nom": "Centre de vaccination de l'Hôpital de Beaujeu",
        "lon": 4.58885,
        "lat": 46.1531,
        "addr": "Rue du Docteur Giraud 69430 Beaujeu"
    },
    {
        "nom": "Centre de Vaccination - CHOLET - Salle des fêtes",
        "lon": -0.878171,
        "lat": 47.0509,
        "addr": "44 Avenue Anatole Manceau 49300 Cholet"
    },
    {
        "nom": "MONTPELLIER CHU Montpellier Centre Antonin Balmès",
        "lon": 3.85729,
        "lat": 43.6263,
        "addr": "39 Avenue Charles Flahault 34090 Montpellier"
    },
    {
        "nom": "Centre de Vaccination - SAUMUR - Espace Jean Rostand",
        "lon": -0.0674521,
        "lat": 47.2683,
        "addr": "404 Rue Emmanuel Clairefond 49400 Saumur"
    },
    {
        "nom": "Maison de santé de la vallée d'Aulps",
        "lon": 6.6594,
        "lat": 46.2299,
        "addr": "58 Imp Alexis Leaud 74430 Saint-Jean-d'Aulps"
    },